$GPGGA,203513.178,4216.673,N,08344.101,W,1,12,1.0,0.0,M,0.0,M,,*7C
$GPGSA,A,3,01,02,03,04,05,06,07,08,09,10,11,12,1.0,1.0,1.0*30
$GPRMC,203513.178,A,4216.673,N,08344.101,W,004.6,130.3,060919,000.0,W*6C
$GPGGA,203514.178,4216.672,N,08344.100,W,1,12,1.0,0.0,M,0.0,M,,*7B
$GPGSA,A,3,01,02,03,04,05,06,07,08,09,10,11,12,1.0,1.0,1.0*30
$GPRMC,203514.178,A,4216.672,N,08344.100,W,003.4,131.7,060919,000.0,W*6B
$GPGGA,203515.178,4216.671,N,08344.099,W,1,12,1.0,0.0,M,0.0,M,,*78
$GPGSA,A,3,01,02,03,04,05,06,07,08,09,10,11,12,1.0,1.0,1.0*30
$GPRMC,203515.178,A,4216.671,N,08344.099,W,006.4,129.2,060919,000.0,W*61
$GPGGA,203516.178,4216.670,N,08344.098,W,1,12,1.0,0.0,M,0.0,M,,*7B
$GPGSA,A,3,01,02,03,04,05,06,07,08,09,10,11,12,1.0,1.0,1.0*30
$GPRMC,203516.178,A,4216.670,N,08344.098,W,007.3,126.6,060919,000.0,W*6F
$GPGGA,203517.178,4216.669,N,08344.096,W,1,12,1.0,0.0,M,0.0,M,,*7C
$GPGSA,A,3,01,02,03,04,05,06,07,08,09,10,11,12,1.0,1.0,1.0*30
$GPRMC,203517.178,A,4216.669,N,08344.096,W,007.0,134.0,060919,000.0,W*6E
$GPGGA,203518.178,4216.667,N,08344.094,W,1,12,1.0,0.0,M,0.0,M,,*7F
$GPGSA,A,3,01,02,03,04,05,06,07,08,09,10,11,12,1.0,1.0,1.0*30
$GPRMC,203518.178,A,4216.667,N,08344.094,W,008.5,126.6,060919,000.0,W*62
$GPGGA,203519.178,4216.665,N,08344.092,W,1,12,1.0,0.0,M,0.0,M,,*7A
$GPGSA,A,3,01,02,03,04,05,06,07,08,09,10,11,12,1.0,1.0,1.0*30
$GPRMC,203519.178,A,4216.665,N,08344.092,W,007.3,126.6,060919,000.0,W*6E
$GPGGA,203520.178,4216.664,N,08344.090,W,1,12,1.0,0.0,M,0.0,M,,*73
$GPGSA,A,3,01,02,03,04,05,06,07,08,09,10,11,12,1.0,1.0,1.0*30
$GPRMC,203520.178,A,4216.664,N,08344.090,W,009.7,130.1,060919,000.0,W*6D
$GPGGA,203521.178,4216.662,N,08344.088,W,1,12,1.0,0.0,M,0.0,M,,*7D
$GPGSA,A,3,01,02,03,04,05,06,07,08,09,10,11,12,1.0,1.0,1.0*30
$GPRMC,203521.178,A,4216.662,N,08344.088,W,010.1,131.7,060919,000.0,W*6A
$GPGGA,203522.178,4216.660,N,08344.085,W,1,12,1.0,0.0,M,0.0,M,,*71
$GPGSA,A,3,01,02,03,04,05,06,07,08,09,10,11,12,1.0,1.0,1.0*30
$GPRMC,203522.178,A,4216.660,N,08344.085,W,013.7,125.4,060919,000.0,W*65
$GPGGA,203523.178,4216.657,N,08344.081,W,1,12,1.0,0.0,M,0.0,M,,*70
$GPGSA,A,3,01,02,03,04,05,06,07,08,09,10,11,12,1.0,1.0,1.0*30
$GPRMC,203523.178,A,4216.657,N,08344.081,W,014.9,123.3,060919,000.0,W*6C
$GPGGA,203524.178,4216.654,N,08344.077,W,1,12,1.0,0.0,M,0.0,M,,*7D
$GPGSA,A,3,01,02,03,04,05,06,07,08,09,10,11,12,1.0,1.0,1.0*30
$GPRMC,203524.178,A,4216.654,N,08344.077,W,011.0,132.8,060919,000.0,W*66
$GPGGA,203525.178,4216.652,N,08344.075,W,1,12,1.0,0.0,M,0.0,M,,*78
$GPGSA,A,3,01,02,03,04,05,06,07,08,09,10,11,12,1.0,1.0,1.0*30
$GPRMC,203525.178,A,4216.652,N,08344.075,W,002.7,132.8,060919,000.0,W*66
$GPGGA,203526.178,4216.652,N,08344.074,W,1,12,1.0,0.0,M,0.0,M,,*7A
$GPGSA,A,3,01,02,03,04,05,06,07,08,09,10,11,12,1.0,1.0,1.0*30
$GPRMC,203526.178,A,4216.652,N,08344.074,W,002.5,141.0,060919,000.0,W*6A
$GPGGA,203527.178,4216.651,N,08344.074,W,1,12,1.0,0.0,M,0.0,M,,*78
$GPGSA,A,3,01,02,03,04,05,06,07,08,09,10,11,12,1.0,1.0,1.0*30
$GPRMC,203527.178,A,4216.651,N,08344.074,W,000.0,000.0,060919,000.0,W*6B
$GPGGA,203528.178,4216.651,N,08344.074,W,1,12,1.0,0.0,M,0.0,M,,*77
$GPGSA,A,3,01,02,03,04,05,06,07,08,09,10,11,12,1.0,1.0,1.0*30
$GPRMC,203528.178,A,4216.651,N,08344.074,W,000.0,000.0,060919,000.0,W*64
$GPGGA,203529.178,4216.651,N,08344.074,W,1,12,1.0,0.0,M,0.0,M,,*76
$GPGSA,A,3,01,02,03,04,05,06,07,08,09,10,11,12,1.0,1.0,1.0*30
$GPRMC,203529.178,A,4216.651,N,08344.074,W,000.0,000.0,060919,000.0,W*65
$GPGGA,203530.178,4216.651,N,08344.074,W,1,12,1.0,0.0,M,0.0,M,,*7E
$GPGSA,A,3,01,02,03,04,05,06,07,08,09,10,11,12,1.0,1.0,1.0*30
$GPRMC,203530.178,A,4216.651,N,08344.074,W,008.2,188.1,060919,000.0,W*67
$GPGGA,203531.178,4216.649,N,08344.074,W,1,12,1.0,0.0,M,0.0,M,,*76
$GPGSA,A,3,01,02,03,04,05,06,07,08,09,10,11,12,1.0,1.0,1.0*30
$GPRMC,203531.178,A,4216.649,N,08344.074,W,008.5,237.3,060919,000.0,W*6D
$GPGGA,203532.178,4216.647,N,08344.076,W,1,12,1.0,0.0,M,0.0,M,,*79
$GPGSA,A,3,01,02,03,04,05,06,07,08,09,10,11,12,1.0,1.0,1.0*30
$GPRMC,203532.178,A,4216.647,N,08344.076,W,009.8,216.5,060919,000.0,W*6B
$GPGGA,203533.178,4216.645,N,08344.078,W,1,12,1.0,0.0,M,0.0,M,,*74
$GPGSA,A,3,01,02,03,04,05,06,07,08,09,10,11,12,1.0,1.0,1.0*30
$GPRMC,203533.178,A,4216.645,N,08344.078,W,017.7,198.6,060919,000.0,W*60
$GPGGA,203534.178,4216.640,N,08344.080,W,1,12,1.0,0.0,M,0.0,M,,*71
$GPGSA,A,3,01,02,03,04,05,06,07,08,09,10,11,12,1.0,1.0,1.0*30
$GPRMC,203534.178,A,4216.640,N,08344.080,W,017.2,178.1,060919,000.0,W*69
$GPGGA,203535.178,4216.635,N,08344.079,W,1,12,1.0,0.0,M,0.0,M,,*74
$GPGSA,A,3,01,02,03,04,05,06,07,08,09,10,11,12,1.0,1.0,1.0*30
$GPRMC,203535.178,A,4216.635,N,08344.079,W,012.9,180.0,060919,000.0,W*64
$GPGGA,203536.178,4216.632,N,08344.079,W,1,12,1.0,0.0,M,0.0,M,,*70
$GPGSA,A,3,01,02,03,04,05,06,07,08,09,10,11,12,1.0,1.0,1.0*30
$GPRMC,203536.178,A,4216.632,N,08344.079,W,015.0,180.0,060919,000.0,W*6E
$GPGGA,203537.178,4216.627,N,08344.079,W,1,12,1.0,0.0,M,0.0,M,,*75
$GPGSA,A,3,01,02,03,04,05,06,07,08,09,10,11,12,1.0,1.0,1.0*30
$GPRMC,203537.178,A,4216.627,N,08344.079,W,018.0,176.3,060919,000.0,W*6C
$GPGGA,203538.178,4216.622,N,08344.079,W,1,12,1.0,0.0,M,0.0,M,,*7F
$GPGSA,A,3,01,02,03,04,05,06,07,08,09,10,11,12,1.0,1.0,1.0*30
$GPRMC,203538.178,A,4216.622,N,08344.079,W,019.3,181.2,060919,000.0,W*6D
$GPGGA,203539.178,4216.617,N,08344.079,W,1,12,1.0,0.0,M,0.0,M,,*78
$GPGSA,A,3,01,02,03,04,05,06,07,08,09,10,11,12,1.0,1.0,1.0*30
$GPRMC,203539.178,A,4216.617,N,08344.079,W,016.7,180.0,060919,000.0,W*62
$GPGGA,203540.178,4216.612,N,08344.079,W,1,12,1.0,0.0,M,0.0,M,,*73
$GPGSA,A,3,01,02,03,04,05,06,07,08,09,10,11,12,1.0,1.0,1.0*30
$GPRMC,203540.178,A,4216.612,N,08344.079,W,019.3,178.3,060919,000.0,W*66
$GPGGA,203541.178,4216.607,N,08344.079,W,1,12,1.0,0.0,M,0.0,M,,*76
$GPGSA,A,3,01,02,03,04,05,06,07,08,09,10,11,12,1.0,1.0,1.0*30
$GPRMC,203541.178,A,4216.607,N,08344.079,W,018.9,178.2,060919,000.0,W*69
$GPGGA,203542.178,4216.602,N,08344.079,W,1,12,1.0,0.0,M,0.0,M,,*70
$GPGSA,A,3,01,02,03,04,05,06,07,08,09,10,11,12,1.0,1.0,1.0*30
$GPRMC,203542.178,A,4216.602,N,08344.079,W,017.2,180.0,060919,000.0,W*6E
$GPGGA,203543.178,4216.597,N,08344.079,W,1,12,1.0,0.0,M,0.0,M,,*7E
$GPGSA,A,3,01,02,03,04,05,06,07,08,09,10,11,12,1.0,1.0,1.0*30
$GPRMC,203543.178,A,4216.597,N,08344.079,W,022.8,177.1,060919,000.0,W*65
$GPGGA,203544.178,4216.591,N,08344.079,W,1,12,1.0,0.0,M,0.0,M,,*7F
$GPGSA,A,3,01,02,03,04,05,06,07,08,09,10,11,12,1.0,1.0,1.0*30
$GPRMC,203544.178,A,4216.591,N,08344.079,W,019.7,180.0,060919,000.0,W*6A
$GPGGA,203545.178,4216.585,N,08344.079,W,1,12,1.0,0.0,M,0.0,M,,*7B
$GPGSA,A,3,01,02,03,04,05,06,07,08,09,10,11,12,1.0,1.0,1.0*30
$GPRMC,203545.178,A,4216.585,N,08344.079,W,018.0,181.8,060919,000.0,W*61
$GPGGA,203546.178,4216.580,N,08344.079,W,1,12,1.0,0.0,M,0.0,M,,*7D
$GPGSA,A,3,01,02,03,04,05,06,07,08,09,10,11,12,1.0,1.0,1.0*30
$GPRMC,203546.178,A,4216.580,N,08344.079,W,017.6,174.4,060919,000.0,W*68
$GPGGA,203547.178,4216.575,N,08344.078,W,1,12,1.0,0.0,M,0.0,M,,*77
$GPGSA,A,3,01,02,03,04,05,06,07,08,09,10,11,12,1.0,1.0,1.0*30
$GPRMC,203547.178,A,4216.575,N,08344.078,W,018.9,180.3,060919,000.0,W*6E
$GPGGA,203548.178,4216.570,N,08344.078,W,1,12,1.0,0.0,M,0.0,M,,*7D
$GPGSA,A,3,01,02,03,04,05,06,07,08,09,10,11,12,1.0,1.0,1.0*30
$GPRMC,203548.178,A,4216.570,N,08344.078,W,021.9,174.0,060919,000.0,W*66
$GPGGA,203549.178,4216.564,N,08344.078,W,1,12,1.0,0.0,M,0.0,M,,*79
$GPGSA,A,3,01,02,03,04,05,06,07,08,09,10,11,12,1.0,1.0,1.0*30
$GPRMC,203549.178,A,4216.564,N,08344.078,W,017.6,181.9,060919,000.0,W*6B
$GPGGA,203550.178,4216.559,N,08344.078,W,1,12,1.0,0.0,M,0.0,M,,*7F
$GPGSA,A,3,01,02,03,04,05,06,07,08,09,10,11,12,1.0,1.0,1.0*30
$GPRMC,203550.178,A,4216.559,N,08344.078,W,015.9,182.1,060919,000.0,W*6B
$GPGGA,203551.178,4216.555,N,08344.078,W,1,12,1.0,0.0,M,0.0,M,,*72
$GPGSA,A,3,01,02,03,04,05,06,07,08,09,10,11,12,1.0,1.0,1.0*30
$GPRMC,203551.178,A,4216.555,N,08344.078,W,019.0,173.0,060919,000.0,W*6C
$GPGGA,203552.178,4216.550,N,08344.077,W,1,12,1.0,0.0,M,0.0,M,,*7B
$GPGSA,A,3,01,02,03,04,05,06,07,08,09,10,11,12,1.0,1.0,1.0*30
$GPRMC,203552.178,A,4216.550,N,08344.077,W,018.6,188.9,060919,000.0,W*6F
$GPGGA,203553.178,4216.544,N,08344.078,W,1,12,1.0,0.0,M,0.0,M,,*70
$GPGSA,A,3,01,02,03,04,05,06,07,08,09,10,11,12,1.0,1.0,1.0*30
$GPRMC,203553.178,A,4216.544,N,08344.078,W,015.5,175.7,060919,000.0,W*66
$GPGGA,203554.178,4216.540,N,08344.078,W,1,12,1.0,0.0,M,0.0,M,,*73
$GPGSA,A,3,01,02,03,04,05,06,07,08,09,10,11,12,1.0,1.0,1.0*30
$GPRMC,203554.178,A,4216.540,N,08344.078,W,020.6,176.8,060919,000.0,W*6C
$GPGGA,203555.178,4216.534,N,08344.078,W,1,12,1.0,0.0,M,0.0,M,,*71
$GPGSA,A,3,01,02,03,04,05,06,07,08,09,10,11,12,1.0,1.0,1.0*30
$GPRMC,203555.178,A,4216.534,N,08344.078,W,015.0,178.3,060919,000.0,W*6B
$GPGGA,203556.178,4216.530,N,08344.077,W,1,12,1.0,0.0,M,0.0,M,,*79
$GPGSA,A,3,01,02,03,04,05,06,07,08,09,10,11,12,1.0,1.0,1.0*30
$GPRMC,203556.178,A,4216.530,N,08344.077,W,014.2,180.0,060919,000.0,W*64
$GPGGA,203557.178,4216.526,N,08344.077,W,1,12,1.0,0.0,M,0.0,M,,*7F
$GPGSA,A,3,01,02,03,04,05,06,07,08,09,10,11,12,1.0,1.0,1.0*30
$GPRMC,203557.178,A,4216.526,N,08344.077,W,017.6,180.0,060919,000.0,W*65
$GPGGA,203558.178,4216.521,N,08344.077,W,1,12,1.0,0.0,M,0.0,M,,*77
$GPGSA,A,3,01,02,03,04,05,06,07,08,09,10,11,12,1.0,1.0,1.0*30
$GPRMC,203558.178,A,4216.521,N,08344.077,W,018.0,178.2,060919,000.0,W*61
$GPGGA,203559.178,4216.516,N,08344.077,W,1,12,1.0,0.0,M,0.0,M,,*72
$GPGSA,A,3,01,02,03,04,05,06,07,08,09,10,11,12,1.0,1.0,1.0*30
$GPRMC,203559.178,A,4216.516,N,08344.077,W,014.2,180.0,060919,000.0,W*6F
$GPGGA,203600.178,4216.513,N,08344.077,W,1,12,1.0,0.0,M,0.0,M,,*78
$GPGSA,A,3,01,02,03,04,05,06,07,08,09,10,11,12,1.0,1.0,1.0*30
$GPRMC,203600.178,A,4216.513,N,08344.077,W,017.2,178.1,060919,000.0,W*60
$GPGGA,203601.178,4216.508,N,08344.077,W,1,12,1.0,0.0,M,0.0,M,,*73
$GPGSA,A,3,01,02,03,04,05,06,07,08,09,10,11,12,1.0,1.0,1.0*30
$GPRMC,203601.178,A,4216.508,N,08344.077,W,012.9,174.9,060919,000.0,W*61
$GPGGA,203602.178,4216.504,N,08344.077,W,1,12,1.0,0.0,M,0.0,M,,*7C
$GPGSA,A,3,01,02,03,04,05,06,07,08,09,10,11,12,1.0,1.0,1.0*30
$GPRMC,203602.178,A,4216.504,N,08344.077,W,003.5,170.4,060919,000.0,W*6B
$GPGGA,203603.178,4216.503,N,08344.077,W,1,12,1.0,0.0,M,0.0,M,,*7A
$GPGSA,A,3,01,02,03,04,05,06,07,08,09,10,11,12,1.0,1.0,1.0*30
$GPRMC,203603.178,A,4216.503,N,08344.077,W,003.4,180.0,060919,000.0,W*67
$GPGGA,203604.178,4216.502,N,08344.077,W,1,12,1.0,0.0,M,0.0,M,,*7C
$GPGSA,A,3,01,02,03,04,05,06,07,08,09,10,11,12,1.0,1.0,1.0*30
$GPRMC,203604.178,A,4216.502,N,08344.077,W,002.1,180.0,060919,000.0,W*65
$GPGGA,203605.178,4216.502,N,08344.077,W,1,12,1.0,0.0,M,0.0,M,,*7D
$GPGSA,A,3,01,02,03,04,05,06,07,08,09,10,11,12,1.0,1.0,1.0*30
$GPRMC,203605.178,A,4216.502,N,08344.077,W,000.0,000.0,060919,000.0,W*6E
$GPGGA,203606.178,4216.502,N,08344.077,W,1,12,1.0,0.0,M,0.0,M,,*7E
$GPGSA,A,3,01,02,03,04,05,06,07,08,09,10,11,12,1.0,1.0,1.0*30
$GPRMC,203606.178,A,4216.502,N,08344.077,W,000.5,090.0,060919,000.0,W*61
$GPGGA,203607.178,4216.502,N,08344.076,W,1,12,1.0,0.0,M,0.0,M,,*7E
$GPGSA,A,3,01,02,03,04,05,06,07,08,09,10,11,12,1.0,1.0,1.0*30
$GPRMC,203607.178,A,4216.502,N,08344.076,W,000.0,000.0,060919,000.0,W*6D
$GPGGA,203608.178,4216.502,N,08344.076,W,1,12,1.0,0.0,M,0.0,M,,*71
$GPGSA,A,3,01,02,03,04,05,06,07,08,09,10,11,12,1.0,1.0,1.0*30
$GPRMC,203608.178,A,4216.502,N,08344.076,W,000.0,000.0,060919,000.0,W*62
$GPGGA,203609.178,4216.502,N,08344.076,W,1,12,1.0,0.0,M,0.0,M,,*70
$GPGSA,A,3,01,02,03,04,05,06,07,08,09,10,11,12,1.0,1.0,1.0*30
$GPRMC,203609.178,A,4216.502,N,08344.076,W,000.0,000.0,060919,000.0,W*63
$GPGGA,203610.178,4216.502,N,08344.076,W,1,12,1.0,0.0,M,0.0,M,,*78
$GPGSA,A,3,01,02,03,04,05,06,07,08,09,10,11,12,1.0,1.0,1.0*30
$GPRMC,203610.178,A,4216.502,N,08344.076,W,000.0,000.0,060919,000.0,W*6B
$GPGGA,203611.178,4216.502,N,08344.076,W,1,12,1.0,0.0,M,0.0,M,,*79
$GPGSA,A,3,01,02,03,04,05,06,07,08,09,10,11,12,1.0,1.0,1.0*30
$GPRMC,203611.178,A,4216.502,N,08344.076,W,000.0,000.0,060919,000.0,W*6A
$GPGGA,203612.178,4216.502,N,08344.076,W,1,12,1.0,0.0,M,0.0,M,,*7A
$GPGSA,A,3,01,02,03,04,05,06,07,08,09,10,11,12,1.0,1.0,1.0*30
$GPRMC,203612.178,A,4216.502,N,08344.076,W,002.2,180.0,060919,000.0,W*60
$GPGGA,203613.178,4216.501,N,08344.076,W,1,12,1.0,0.0,M,0.0,M,,*78
$GPGSA,A,3,01,02,03,04,05,06,07,08,09,10,11,12,1.0,1.0,1.0*30
$GPRMC,203613.178,A,4216.501,N,08344.076,W,001.3,270.0,060919,000.0,W*6C
$GPGGA,203614.178,4216.501,N,08344.077,W,1,12,1.0,0.0,M,0.0,M,,*7E
$GPGSA,A,3,01,02,03,04,05,06,07,08,09,10,11,12,1.0,1.0,1.0*30
$GPRMC,203614.178,A,4216.501,N,08344.077,W,001.7,270.0,060919,000.0,W*6E
$GPGGA,203615.178,4216.501,N,08344.078,W,1,12,1.0,0.0,M,0.0,M,,*70
$GPGSA,A,3,01,02,03,04,05,06,07,08,09,10,11,12,1.0,1.0,1.0*30
$GPRMC,203615.178,A,4216.501,N,08344.078,W,004.7,266.1,060919,000.0,W*63
$GPGGA,203616.178,4216.501,N,08344.079,W,1,12,1.0,0.0,M,0.0,M,,*72
$GPGSA,A,3,01,02,03,04,05,06,07,08,09,10,11,12,1.0,1.0,1.0*30
$GPRMC,203616.178,A,4216.501,N,08344.079,W,004.3,265.8,060919,000.0,W*6F
$GPGGA,203617.178,4216.501,N,08344.081,W,1,12,1.0,0.0,M,0.0,M,,*74
$GPGSA,A,3,01,02,03,04,05,06,07,08,09,10,11,12,1.0,1.0,1.0*30
$GPRMC,203617.178,A,4216.501,N,08344.081,W,003.9,270.0,060919,000.0,W*68
$GPGGA,203618.178,4216.501,N,08344.082,W,1,12,1.0,0.0,M,0.0,M,,*78
$GPGSA,A,3,01,02,03,04,05,06,07,08,09,10,11,12,1.0,1.0,1.0*30
$GPRMC,203618.178,A,4216.501,N,08344.082,W,006.9,270.0,060919,000.0,W*61
$GPGGA,203619.178,4216.501,N,08344.085,W,1,12,1.0,0.0,M,0.0,M,,*7E
$GPGSA,A,3,01,02,03,04,05,06,07,08,09,10,11,12,1.0,1.0,1.0*30
$GPRMC,203619.178,A,4216.501,N,08344.085,W,006.9,270.0,060919,000.0,W*67
$GPGGA,203620.178,4216.501,N,08344.088,W,1,12,1.0,0.0,M,0.0,M,,*79
$GPGSA,A,3,01,02,03,04,05,06,07,08,09,10,11,12,1.0,1.0,1.0*30
$GPRMC,203620.178,A,4216.501,N,08344.088,W,009.9,270.0,060919,000.0,W*6F
$GPGGA,203621.178,4216.501,N,08344.091,W,1,12,1.0,0.0,M,0.0,M,,*70
$GPGSA,A,3,01,02,03,04,05,06,07,08,09,10,11,12,1.0,1.0,1.0*30
$GPRMC,203621.178,A,4216.501,N,08344.091,W,009.0,270.0,060919,000.0,W*6F
$GPGGA,203622.178,4216.501,N,08344.095,W,1,12,1.0,0.0,M,0.0,M,,*77
$GPGSA,A,3,01,02,03,04,05,06,07,08,09,10,11,12,1.0,1.0,1.0*30
$GPRMC,203622.178,A,4216.501,N,08344.095,W,014.2,270.0,060919,000.0,W*66
$GPGGA,203623.178,4216.501,N,08344.100,W,1,12,1.0,0.0,M,0.0,M,,*7B
$GPGSA,A,3,01,02,03,04,05,06,07,08,09,10,11,12,1.0,1.0,1.0*30
$GPRMC,203623.178,A,4216.501,N,08344.100,W,012.4,268.5,060919,000.0,W*66
$GPGGA,203624.178,4216.501,N,08344.105,W,1,12,1.0,0.0,M,0.0,M,,*79
$GPGSA,A,3,01,02,03,04,05,06,07,08,09,10,11,12,1.0,1.0,1.0*30
$GPRMC,203624.178,A,4216.501,N,08344.105,W,009.4,270.0,060919,000.0,W*62
$GPGGA,203625.178,4216.501,N,08344.108,W,1,12,1.0,0.0,M,0.0,M,,*75
$GPGSA,A,3,01,02,03,04,05,06,07,08,09,10,11,12,1.0,1.0,1.0*30
$GPRMC,203625.178,A,4216.501,N,08344.108,W,013.8,266.0,060919,000.0,W*6E
$GPGGA,203626.178,4216.500,N,08344.113,W,1,12,1.0,0.0,M,0.0,M,,*7D
$GPGSA,A,3,01,02,03,04,05,06,07,08,09,10,11,12,1.0,1.0,1.0*30
$GPRMC,203626.178,A,4216.500,N,08344.113,W,015.0,270.0,060919,000.0,W*6F
$GPGGA,203627.178,4216.500,N,08344.119,W,1,12,1.0,0.0,M,0.0,M,,*76
$GPGSA,A,3,01,02,03,04,05,06,07,08,09,10,11,12,1.0,1.0,1.0*30
$GPRMC,203627.178,A,4216.500,N,08344.119,W,008.2,270.0,060919,000.0,W*6A
$GPGGA,203628.178,4216.500,N,08344.122,W,1,12,1.0,0.0,M,0.0,M,,*71
$GPGSA,A,3,01,02,03,04,05,06,07,08,09,10,11,12,1.0,1.0,1.0*30
$GPRMC,203628.178,A,4216.500,N,08344.122,W,005.2,270.0,060919,000.0,W*60
$GPGGA,203629.178,4216.500,N,08344.124,W,1,12,1.0,0.0,M,0.0,M,,*76
$GPGSA,A,3,01,02,03,04,05,06,07,08,09,10,11,12,1.0,1.0,1.0*30
$GPRMC,203629.178,A,4216.500,N,08344.124,W,006.9,267.3,060919,000.0,W*6A
$GPGGA,203630.178,4216.500,N,08344.127,W,1,12,1.0,0.0,M,0.0,M,,*7D
$GPGSA,A,3,01,02,03,04,05,06,07,08,09,10,11,12,1.0,1.0,1.0*30
$GPRMC,203630.178,A,4216.500,N,08344.127,W,004.7,270.0,060919,000.0,W*68
$GPGGA,203631.178,4216.500,N,08344.128,W,1,12,1.0,0.0,M,0.0,M,,*73
$GPGSA,A,3,01,02,03,04,05,06,07,08,09,10,11,12,1.0,1.0,1.0*30
$GPRMC,203631.178,A,4216.500,N,08344.128,W,003.0,270.0,060919,000.0,W*66
$GPGGA,203632.178,4216.500,N,08344.129,W,1,12,1.0,0.0,M,0.0,M,,*71
$GPGSA,A,3,01,02,03,04,05,06,07,08,09,10,11,12,1.0,1.0,1.0*30
$GPRMC,203632.178,A,4216.500,N,08344.129,W,000.0,000.0,060919,000.0,W*62
$GPGGA,203633.178,4216.500,N,08344.129,W,1,12,1.0,0.0,M,0.0,M,,*70
$GPGSA,A,3,01,02,03,04,05,06,07,08,09,10,11,12,1.0,1.0,1.0*30
$GPRMC,203633.178,A,4216.500,N,08344.129,W,000.0,000.0,060919,000.0,W*63
$GPGGA,203634.178,4216.500,N,08344.129,W,1,12,1.0,0.0,M,0.0,M,,*77
$GPGSA,A,3,01,02,03,04,05,06,07,08,09,10,11,12,1.0,1.0,1.0*30
$GPRMC,203634.178,A,4216.500,N,08344.129,W,000.0,000.0,060919,000.0,W*64
$GPGGA,203635.178,4216.500,N,08344.129,W,1,12,1.0,0.0,M,0.0,M,,*76
$GPGSA,A,3,01,02,03,04,05,06,07,08,09,10,11,12,1.0,1.0,1.0*30
$GPRMC,203635.178,A,4216.500,N,08344.129,W,000.0,000.0,060919,000.0,W*65
$GPGGA,203636.178,4216.500,N,08344.129,W,1,12,1.0,0.0,M,0.0,M,,*75
$GPGSA,A,3,01,02,03,04,05,06,07,08,09,10,11,12,1.0,1.0,1.0*30
$GPRMC,203636.178,A,4216.500,N,08344.129,W,000.0,000.0,060919,000.0,W*66
$GPGGA,203637.178,4216.500,N,08344.129,W,1,12,1.0,0.0,M,0.0,M,,*74
$GPGSA,A,3,01,02,03,04,05,06,07,08,09,10,11,12,1.0,1.0,1.0*30
$GPRMC,203637.178,A,4216.500,N,08344.129,W,000.0,000.0,060919,000.0,W*67
$GPGGA,203638.178,4216.500,N,08344.129,W,1,12,1.0,0.0,M,0.0,M,,*7B
$GPGSA,A,3,01,02,03,04,05,06,07,08,09,10,11,12,1.0,1.0,1.0*30
$GPRMC,203638.178,A,4216.500,N,08344.129,W,000.0,000.0,060919,000.0,W*68
$GPGGA,203639.178,4216.500,N,08344.129,W,1,12,1.0,0.0,M,0.0,M,,*7A
$GPGSA,A,3,01,02,03,04,05,06,07,08,09,10,11,12,1.0,1.0,1.0*30
$GPRMC,203639.178,A,4216.500,N,08344.129,W,000.0,000.0,060919,000.0,W*69
$GPGGA,203640.178,4216.500,N,08344.129,W,1,12,1.0,0.0,M,0.0,M,,*74
$GPGSA,A,3,01,02,03,04,05,06,07,08,09,10,11,12,1.0,1.0,1.0*30
$GPRMC,203640.178,A,4216.500,N,08344.129,W,005.1,270.0,060919,000.0,W*66
$GPGGA,203641.178,4216.500,N,08344.131,W,1,12,1.0,0.0,M,0.0,M,,*7C
$GPGSA,A,3,01,02,03,04,05,06,07,08,09,10,11,12,1.0,1.0,1.0*30
$GPRMC,203641.178,A,4216.500,N,08344.131,W,006.4,270.0,060919,000.0,W*68
$GPGGA,203642.178,4216.500,N,08344.134,W,1,12,1.0,0.0,M,0.0,M,,*7A
$GPGSA,A,3,01,02,03,04,05,06,07,08,09,10,11,12,1.0,1.0,1.0*30
$GPRMC,203642.178,A,4216.500,N,08344.134,W,005.6,266.7,060919,000.0,W*6F
$GPGGA,203643.178,4216.500,N,08344.136,W,1,12,1.0,0.0,M,0.0,M,,*79
$GPGSA,A,3,01,02,03,04,05,06,07,08,09,10,11,12,1.0,1.0,1.0*30
$GPRMC,203643.178,A,4216.500,N,08344.136,W,004.3,270.0,060919,000.0,W*68
$GPGGA,203644.178,4216.500,N,08344.137,W,1,12,1.0,0.0,M,0.0,M,,*7F
$GPGSA,A,3,01,02,03,04,05,06,07,08,09,10,11,12,1.0,1.0,1.0*30
$GPRMC,203644.178,A,4216.500,N,08344.137,W,006.9,267.3,060919,000.0,W*63
$GPGGA,203645.178,4216.500,N,08344.140,W,1,12,1.0,0.0,M,0.0,M,,*7E
$GPGSA,A,3,01,02,03,04,05,06,07,08,09,10,11,12,1.0,1.0,1.0*30
$GPRMC,203645.178,A,4216.500,N,08344.140,W,007.3,267.5,060919,000.0,W*6F
$GPGGA,203646.178,4216.500,N,08344.143,W,1,12,1.0,0.0,M,0.0,M,,*7E
$GPGSA,A,3,01,02,03,04,05,06,07,08,09,10,11,12,1.0,1.0,1.0*30
$GPRMC,203646.178,A,4216.500,N,08344.143,W,009.4,270.0,060919,000.0,W*65
$GPGGA,203647.178,4216.500,N,08344.146,W,1,12,1.0,0.0,M,0.0,M,,*7A
$GPGSA,A,3,01,02,03,04,05,06,07,08,09,10,11,12,1.0,1.0,1.0*30
$GPRMC,203647.178,A,4216.500,N,08344.146,W,011.6,270.0,060919,000.0,W*6A
$GPGGA,203648.178,4216.500,N,08344.151,W,1,12,1.0,0.0,M,0.0,M,,*73
$GPGSA,A,3,01,02,03,04,05,06,07,08,09,10,11,12,1.0,1.0,1.0*30
$GPRMC,203648.178,A,4216.500,N,08344.151,W,011.2,266.7,060919,000.0,W*67
$GPGGA,203649.178,4216.500,N,08344.155,W,1,12,1.0,0.0,M,0.0,M,,*76
$GPGSA,A,3,01,02,03,04,05,06,07,08,09,10,11,12,1.0,1.0,1.0*30
$GPRMC,203649.178,A,4216.500,N,08344.155,W,015.4,271.2,060919,000.0,W*63
$GPGGA,203650.178,4216.500,N,08344.161,W,1,12,1.0,0.0,M,0.0,M,,*79
$GPGSA,A,3,01,02,03,04,05,06,07,08,09,10,11,12,1.0,1.0,1.0*30
$GPRMC,203650.178,A,4216.500,N,08344.161,W,015.9,267.7,060919,000.0,W*63
$GPGGA,203651.178,4216.500,N,08344.167,W,1,12,1.0,0.0,M,0.0,M,,*7E
$GPGSA,A,3,01,02,03,04,05,06,07,08,09,10,11,12,1.0,1.0,1.0*30
$GPRMC,203651.178,A,4216.500,N,08344.167,W,011.9,267.7,060919,000.0,W*60
$GPGGA,203652.178,4216.499,N,08344.171,W,1,12,1.0,0.0,M,0.0,M,,*7B
$GPGSA,A,3,01,02,03,04,05,06,07,08,09,10,11,12,1.0,1.0,1.0*30
$GPRMC,203652.178,A,4216.499,N,08344.171,W,013.3,270.0,060919,000.0,W*6C
$GPGGA,203653.178,4216.499,N,08344.176,W,1,12,1.0,0.0,M,0.0,M,,*7D
$GPGSA,A,3,01,02,03,04,05,06,07,08,09,10,11,12,1.0,1.0,1.0*30
$GPRMC,203653.178,A,4216.499,N,08344.176,W,015.0,267.6,060919,000.0,W*6F
$GPGGA,203654.178,4216.499,N,08344.182,W,1,12,1.0,0.0,M,0.0,M,,*71
$GPGSA,A,3,01,02,03,04,05,06,07,08,09,10,11,12,1.0,1.0,1.0*30
$GPRMC,203654.178,A,4216.499,N,08344.182,W,019.3,271.9,060919,000.0,W*64
$GPGGA,203655.178,4216.499,N,08344.189,W,1,12,1.0,0.0,M,0.0,M,,*7B
$GPGSA,A,3,01,02,03,04,05,06,07,08,09,10,11,12,1.0,1.0,1.0*30
$GPRMC,203655.178,A,4216.499,N,08344.189,W,020.2,267.3,060919,000.0,W*68
$GPGGA,203656.178,4216.499,N,08344.196,W,1,12,1.0,0.0,M,0.0,M,,*76
$GPGSA,A,3,01,02,03,04,05,06,07,08,09,10,11,12,1.0,1.0,1.0*30
$GPRMC,203656.178,A,4216.499,N,08344.196,W,018.4,270.0,060919,000.0,W*6D
$GPGGA,203657.178,4216.499,N,08344.203,W,1,12,1.0,0.0,M,0.0,M,,*78
$GPGSA,A,3,01,02,03,04,05,06,07,08,09,10,11,12,1.0,1.0,1.0*30
$GPRMC,203657.178,A,4216.499,N,08344.203,W,020.2,268.2,060919,000.0,W*65
$GPGGA,203658.178,4216.499,N,08344.211,W,1,12,1.0,0.0,M,0.0,M,,*74
$GPGSA,A,3,01,02,03,04,05,06,07,08,09,10,11,12,1.0,1.0,1.0*30
$GPRMC,203658.178,A,4216.499,N,08344.211,W,020.2,268.2,060919,000.0,W*69
$GPGGA,203659.178,4216.499,N,08344.218,W,1,12,1.0,0.0,M,0.0,M,,*7C
$GPGSA,A,3,01,02,03,04,05,06,07,08,09,10,11,12,1.0,1.0,1.0*30
$GPRMC,203659.178,A,4216.499,N,08344.218,W,019.8,272.8,060919,000.0,W*60
$GPGGA,203700.178,4216.499,N,08344.226,W,1,12,1.0,0.0,M,0.0,M,,*7C
$GPGSA,A,3,01,02,03,04,05,06,07,08,09,10,11,12,1.0,1.0,1.0*30
$GPRMC,203700.178,A,4216.499,N,08344.226,W,016.3,267.8,060919,000.0,W*60
$GPGGA,203701.178,4216.499,N,08344.232,W,1,12,1.0,0.0,M,0.0,M,,*78
$GPGSA,A,3,01,02,03,04,05,06,07,08,09,10,11,12,1.0,1.0,1.0*30
$GPRMC,203701.178,A,4216.499,N,08344.232,W,018.5,271.0,060919,000.0,W*63
$GPGGA,203702.178,4216.499,N,08344.239,W,1,12,1.0,0.0,M,0.0,M,,*70
$GPGSA,A,3,01,02,03,04,05,06,07,08,09,10,11,12,1.0,1.0,1.0*30
$GPRMC,203702.178,A,4216.499,N,08344.239,W,016.3,268.9,060919,000.0,W*62
$GPGGA,203703.178,4216.499,N,08344.245,W,1,12,1.0,0.0,M,0.0,M,,*7A
$GPGSA,A,3,01,02,03,04,05,06,07,08,09,10,11,12,1.0,1.0,1.0*30
$GPRMC,203703.178,A,4216.499,N,08344.245,W,014.2,268.7,060919,000.0,W*65
$GPGGA,203704.178,4216.499,N,08344.250,W,1,12,1.0,0.0,M,0.0,M,,*79
$GPGSA,A,3,01,02,03,04,05,06,07,08,09,10,11,12,1.0,1.0,1.0*30
$GPRMC,203704.178,A,4216.499,N,08344.250,W,009.4,270.0,060919,000.0,W*62
$GPGGA,203705.178,4216.499,N,08344.254,W,1,12,1.0,0.0,M,0.0,M,,*7C
$GPGSA,A,3,01,02,03,04,05,06,07,08,09,10,11,12,1.0,1.0,1.0*30
$GPRMC,203705.178,A,4216.499,N,08344.254,W,005.1,270.0,060919,000.0,W*6E
$GPGGA,203706.178,4216.499,N,08344.256,W,1,12,1.0,0.0,M,0.0,M,,*7D
$GPGSA,A,3,01,02,03,04,05,06,07,08,09,10,11,12,1.0,1.0,1.0*30
$GPRMC,203706.178,A,4216.499,N,08344.256,W,002.1,270.0,060919,000.0,W*68
$GPGGA,203707.178,4216.499,N,08344.257,W,1,12,1.0,0.0,M,0.0,M,,*7D
$GPGSA,A,3,01,02,03,04,05,06,07,08,09,10,11,12,1.0,1.0,1.0*30
$GPRMC,203707.178,A,4216.499,N,08344.257,W,001.3,270.0,060919,000.0,W*69
$GPGGA,203708.178,4216.499,N,08344.257,W,1,12,1.0,0.0,M,0.0,M,,*72
$GPGSA,A,3,01,02,03,04,05,06,07,08,09,10,11,12,1.0,1.0,1.0*30
$GPRMC,203708.178,A,4216.499,N,08344.257,W,001.8,280.5,060919,000.0,W*67
$GPGGA,203709.178,4216.499,N,08344.258,W,1,12,1.0,0.0,M,0.0,M,,*7C
$GPGSA,A,3,01,02,03,04,05,06,07,08,09,10,11,12,1.0,1.0,1.0*30
$GPRMC,203709.178,A,4216.499,N,08344.258,W,000.2,000.0,060919,000.0,W*6D
$GPGGA,203710.178,4216.499,N,08344.258,W,1,12,1.0,0.0,M,0.0,M,,*74
$GPGSA,A,3,01,02,03,04,05,06,07,08,09,10,11,12,1.0,1.0,1.0*30
$GPRMC,203710.178,A,4216.499,N,08344.258,W,000.2,000.0,060919,000.0,W*65
$GPGGA,203711.178,4216.499,N,08344.258,W,1,12,1.0,0.0,M,0.0,M,,*75
$GPGSA,A,3,01,02,03,04,05,06,07,08,09,10,11,12,1.0,1.0,1.0*30
$GPRMC,203711.178,A,4216.499,N,08344.258,W,000.2,000.0,060919,000.0,W*64
$GPGGA,203712.178,4216.499,N,08344.258,W,1,12,1.0,0.0,M,0.0,M,,*76
$GPGSA,A,3,01,02,03,04,05,06,07,08,09,10,11,12,1.0,1.0,1.0*30
$GPRMC,203712.178,A,4216.499,N,08344.258,W,000.2,000.0,060919,000.0,W*67
$GPGGA,203713.178,4216.499,N,08344.258,W,1,12,1.0,0.0,M,0.0,M,,*77
$GPGSA,A,3,01,02,03,04,05,06,07,08,09,10,11,12,1.0,1.0,1.0*30
$GPRMC,203713.178,A,4216.499,N,08344.258,W,000.2,000.0,060919,000.0,W*66
$GPGGA,203714.178,4216.499,N,08344.258,W,1,12,1.0,0.0,M,0.0,M,,*70
$GPGSA,A,3,01,02,03,04,05,06,07,08,09,10,11,12,1.0,1.0,1.0*30
$GPRMC,203714.178,A,4216.499,N,08344.258,W,004.2,264.1,060919,000.0,W*64
$GPGGA,203715.178,4216.498,N,08344.259,W,1,12,1.0,0.0,M,0.0,M,,*71
$GPGSA,A,3,01,02,03,04,05,06,07,08,09,10,11,12,1.0,1.0,1.0*30
$GPRMC,203715.178,A,4216.498,N,08344.259,W,003.9,270.0,060919,000.0,W*6D
$GPGGA,203716.178,4216.498,N,08344.261,W,1,12,1.0,0.0,M,0.0,M,,*79
$GPGSA,A,3,01,02,03,04,05,06,07,08,09,10,11,12,1.0,1.0,1.0*30
$GPRMC,203716.178,A,4216.498,N,08344.261,W,003.0,270.0,060919,000.0,W*6C
$GPGGA,203717.178,4216.498,N,08344.262,W,1,12,1.0,0.0,M,0.0,M,,*7B
$GPGSA,A,3,01,02,03,04,05,06,07,08,09,10,11,12,1.0,1.0,1.0*30
$GPRMC,203717.178,A,4216.498,N,08344.262,W,004.3,270.0,060919,000.0,W*6A
$GPGGA,203718.178,4216.498,N,08344.264,W,1,12,1.0,0.0,M,0.0,M,,*72
$GPGSA,A,3,01,02,03,04,05,06,07,08,09,10,11,12,1.0,1.0,1.0*30
$GPRMC,203718.178,A,4216.498,N,08344.264,W,007.7,267.6,060919,000.0,W*64
$GPGGA,203719.178,4216.498,N,08344.266,W,1,12,1.0,0.0,M,0.0,M,,*71
$GPGSA,A,3,01,02,03,04,05,06,07,08,09,10,11,12,1.0,1.0,1.0*30
$GPRMC,203719.178,A,4216.498,N,08344.266,W,009.4,271.9,060919,000.0,W*62
$GPGGA,203720.178,4216.498,N,08344.270,W,1,12,1.0,0.0,M,0.0,M,,*7C
$GPGSA,A,3,01,02,03,04,05,06,07,08,09,10,11,12,1.0,1.0,1.0*30
$GPRMC,203720.178,A,4216.498,N,08344.270,W,009.9,270.0,060919,000.0,W*6A
$GPGGA,203721.178,4216.498,N,08344.274,W,1,12,1.0,0.0,M,0.0,M,,*79
$GPGSA,A,3,01,02,03,04,05,06,07,08,09,10,11,12,1.0,1.0,1.0*30
$GPRMC,203721.178,A,4216.498,N,08344.274,W,009.4,270.0,060919,000.0,W*62
$GPGGA,203722.178,4216.498,N,08344.277,W,1,12,1.0,0.0,M,0.0,M,,*79
$GPGSA,A,3,01,02,03,04,05,06,07,08,09,10,11,12,1.0,1.0,1.0*30
$GPRMC,203722.178,A,4216.498,N,08344.277,W,013.3,268.6,060919,000.0,W*61
$GPGGA,203723.178,4216.498,N,08344.282,W,1,12,1.0,0.0,M,0.0,M,,*72
$GPGSA,A,3,01,02,03,04,05,06,07,08,09,10,11,12,1.0,1.0,1.0*30
$GPRMC,203723.178,A,4216.498,N,08344.282,W,014.2,271.3,060919,000.0,W*61
$GPGGA,203724.178,4216.498,N,08344.288,W,1,12,1.0,0.0,M,0.0,M,,*7F
$GPGSA,A,3,01,02,03,04,05,06,07,08,09,10,11,12,1.0,1.0,1.0*30
$GPRMC,203724.178,A,4216.498,N,08344.288,W,014.2,266.1,060919,000.0,W*68
$GPGGA,203725.178,4216.498,N,08344.293,W,1,12,1.0,0.0,M,0.0,M,,*74
$GPGSA,A,3,01,02,03,04,05,06,07,08,09,10,11,12,1.0,1.0,1.0*30
$GPRMC,203725.178,A,4216.498,N,08344.293,W,017.6,270.0,060919,000.0,W*62
$GPGGA,203726.178,4216.498,N,08344.299,W,1,12,1.0,0.0,M,0.0,M,,*7D
$GPGSA,A,3,01,02,03,04,05,06,07,08,09,10,11,12,1.0,1.0,1.0*30
$GPRMC,203726.178,A,4216.498,N,08344.299,W,018.4,270.0,060919,000.0,W*66
$GPGGA,203727.178,4216.498,N,08344.306,W,1,12,1.0,0.0,M,0.0,M,,*7B
$GPGSA,A,3,01,02,03,04,05,06,07,08,09,10,11,12,1.0,1.0,1.0*30
$GPRMC,203727.178,A,4216.498,N,08344.306,W,016.3,268.9,060919,000.0,W*69
$GPGGA,203728.178,4216.498,N,08344.312,W,1,12,1.0,0.0,M,0.0,M,,*71
$GPGSA,A,3,01,02,03,04,05,06,07,08,09,10,11,12,1.0,1.0,1.0*30
$GPRMC,203728.178,A,4216.498,N,08344.312,W,017.6,271.0,060919,000.0,W*66
$GPGGA,203729.178,4216.498,N,08344.319,W,1,12,1.0,0.0,M,0.0,M,,*7B
$GPGSA,A,3,01,02,03,04,05,06,07,08,09,10,11,12,1.0,1.0,1.0*30
$GPRMC,203729.178,A,4216.498,N,08344.319,W,016.4,264.4,060919,000.0,W*6F
$GPGGA,203730.178,4216.498,N,08344.325,W,1,12,1.0,0.0,M,0.0,M,,*7C
$GPGSA,A,3,01,02,03,04,05,06,07,08,09,10,11,12,1.0,1.0,1.0*30
$GPRMC,203730.178,A,4216.498,N,08344.325,W,010.6,269.8,060919,000.0,W*6D
$GPGGA,203731.178,4216.498,N,08344.329,W,1,12,1.0,0.0,M,0.0,M,,*71
$GPGSA,A,3,01,02,03,04,05,06,07,08,09,10,11,12,1.0,1.0,1.0*30
$GPRMC,203731.178,A,4216.498,N,08344.329,W,021.9,270.0,060919,000.0,W*6D
$GPGGA,203732.178,4216.498,N,08344.337,W,1,12,1.0,0.0,M,0.0,M,,*7D
$GPGSA,A,3,01,02,03,04,05,06,07,08,09,10,11,12,1.0,1.0,1.0*30
$GPRMC,203732.178,A,4216.498,N,08344.337,W,019.3,269.1,060919,000.0,W*69
$GPGGA,203733.178,4216.497,N,08344.345,W,1,12,1.0,0.0,M,0.0,M,,*76
$GPGSA,A,3,01,02,03,04,05,06,07,08,09,10,11,12,1.0,1.0,1.0*30
$GPRMC,203733.178,A,4216.497,N,08344.345,W,020.6,269.1,060919,000.0,W*6D
$GPGGA,203734.178,4216.497,N,08344.352,W,1,12,1.0,0.0,M,0.0,M,,*77
$GPGSA,A,3,01,02,03,04,05,06,07,08,09,10,11,12,1.0,1.0,1.0*30
$GPRMC,203734.178,A,4216.497,N,08344.352,W,018.9,271.0,060919,000.0,W*60
$GPGGA,203735.178,4216.497,N,08344.359,W,1,12,1.0,0.0,M,0.0,M,,*7D
$GPGSA,A,3,01,02,03,04,05,06,07,08,09,10,11,12,1.0,1.0,1.0*30
$GPRMC,203735.178,A,4216.497,N,08344.359,W,019.3,270.0,060919,000.0,W*60
$GPGGA,203736.178,4216.497,N,08344.367,W,1,12,1.0,0.0,M,0.0,M,,*73
$GPGSA,A,3,01,02,03,04,05,06,07,08,09,10,11,12,1.0,1.0,1.0*30
$GPRMC,203736.178,A,4216.497,N,08344.367,W,021.9,268.3,060919,000.0,W*65
$GPGGA,203737.178,4216.497,N,08344.375,W,1,12,1.0,0.0,M,0.0,M,,*71
$GPGSA,A,3,01,02,03,04,05,06,07,08,09,10,11,12,1.0,1.0,1.0*30
$GPRMC,203737.178,A,4216.497,N,08344.375,W,021.5,269.1,060919,000.0,W*68
$GPGGA,203738.178,4216.497,N,08344.383,W,1,12,1.0,0.0,M,0.0,M,,*77
$GPGSA,A,3,01,02,03,04,05,06,07,08,09,10,11,12,1.0,1.0,1.0*30
$GPRMC,203738.178,A,4216.497,N,08344.383,W,021.5,269.1,060919,000.0,W*6E
$GPGGA,203739.178,4216.497,N,08344.391,W,1,12,1.0,0.0,M,0.0,M,,*75
$GPGSA,A,3,01,02,03,04,05,06,07,08,09,10,11,12,1.0,1.0,1.0*30
$GPRMC,203739.178,A,4216.497,N,08344.391,W,015.0,270.0,060919,000.0,W*67
$GPGGA,203740.178,4216.497,N,08344.397,W,1,12,1.0,0.0,M,0.0,M,,*7D
$GPGSA,A,3,01,02,03,04,05,06,07,08,09,10,11,12,1.0,1.0,1.0*30
$GPRMC,203740.178,A,4216.497,N,08344.397,W,012.9,267.2,060919,000.0,W*65
$GPGGA,203741.178,4216.497,N,08344.401,W,1,12,1.0,0.0,M,0.0,M,,*74
$GPGSA,A,3,01,02,03,04,05,06,07,08,09,10,11,12,1.0,1.0,1.0*30
$GPRMC,203741.178,A,4216.497,N,08344.401,W,006.4,270.0,060919,000.0,W*60
$GPGGA,203742.178,4216.497,N,08344.404,W,1,12,1.0,0.0,M,0.0,M,,*72
$GPGSA,A,3,01,02,03,04,05,06,07,08,09,10,11,12,1.0,1.0,1.0*30
$GPRMC,203742.178,A,4216.497,N,08344.404,W,004.7,273.9,060919,000.0,W*6D
$GPGGA,203743.178,4216.497,N,08344.406,W,1,12,1.0,0.0,M,0.0,M,,*71
$GPGSA,A,3,01,02,03,04,05,06,07,08,09,10,11,12,1.0,1.0,1.0*30
$GPRMC,203743.178,A,4216.497,N,08344.406,W,002.6,270.0,060919,000.0,W*63
$GPGGA,203744.178,4216.497,N,08344.407,W,1,12,1.0,0.0,M,0.0,M,,*77
$GPGSA,A,3,01,02,03,04,05,06,07,08,09,10,11,12,1.0,1.0,1.0*30
$GPRMC,203744.178,A,4216.497,N,08344.407,W,000.0,000.0,060919,000.0,W*64
$GPGGA,203745.178,4216.497,N,08344.407,W,1,12,1.0,0.0,M,0.0,M,,*76
$GPGSA,A,3,01,02,03,04,05,06,07,08,09,10,11,12,1.0,1.0,1.0*30
$GPRMC,203745.178,A,4216.497,N,08344.407,W,000.0,000.0,060919,000.0,W*65
$GPGGA,203746.178,4216.497,N,08344.407,W,1,12,1.0,0.0,M,0.0,M,,*75
$GPGSA,A,3,01,02,03,04,05,06,07,08,09,10,11,12,1.0,1.0,1.0*30
$GPRMC,203746.178,A,4216.497,N,08344.407,W,000.0,000.0,060919,000.0,W*66
$GPGGA,203747.178,4216.497,N,08344.407,W,1,12,1.0,0.0,M,0.0,M,,*74
$GPGSA,A,3,01,02,03,04,05,06,07,08,09,10,11,12,1.0,1.0,1.0*30
$GPRMC,203747.178,A,4216.497,N,08344.407,W,000.0,000.0,060919,000.0,W*67
$GPGGA,203748.178,4216.497,N,08344.407,W,1,12,1.0,0.0,M,0.0,M,,*7B
$GPGSA,A,3,01,02,03,04,05,06,07,08,09,10,11,12,1.0,1.0,1.0*30
$GPRMC,203748.178,A,4216.497,N,08344.407,W,000.0,000.0,060919,000.0,W*68
$GPGGA,203749.178,4216.497,N,08344.407,W,1,12,1.0,0.0,M,0.0,M,,*7A
$GPGSA,A,3,01,02,03,04,05,06,07,08,09,10,11,12,1.0,1.0,1.0*30
$GPRMC,203749.178,A,4216.497,N,08344.407,W,004.6,264.8,060919,000.0,W*63
$GPGGA,203750.178,4216.497,N,08344.408,W,1,12,1.0,0.0,M,0.0,M,,*7D
$GPGSA,A,3,01,02,03,04,05,06,07,08,09,10,11,12,1.0,1.0,1.0*30
$GPRMC,203750.178,A,4216.497,N,08344.408,W,004.4,278.4,060919,000.0,W*67
$GPGGA,203751.178,4216.497,N,08344.410,W,1,12,1.0,0.0,M,0.0,M,,*75
$GPGSA,A,3,01,02,03,04,05,06,07,08,09,10,11,12,1.0,1.0,1.0*30
$GPRMC,203751.178,A,4216.497,N,08344.410,W,006.4,267.2,060919,000.0,W*65
$GPGGA,203752.178,4216.497,N,08344.412,W,1,12,1.0,0.0,M,0.0,M,,*74
$GPGSA,A,3,01,02,03,04,05,06,07,08,09,10,11,12,1.0,1.0,1.0*30
$GPRMC,203752.178,A,4216.497,N,08344.412,W,010.7,270.0,060919,000.0,W*64
$GPGGA,203753.178,4216.497,N,08344.416,W,1,12,1.0,0.0,M,0.0,M,,*71
$GPGSA,A,3,01,02,03,04,05,06,07,08,09,10,11,12,1.0,1.0,1.0*30
$GPRMC,203753.178,A,4216.497,N,08344.416,W,012.4,270.0,060919,000.0,W*60
$GPGGA,203754.178,4216.497,N,08344.421,W,1,12,1.0,0.0,M,0.0,M,,*72
$GPGSA,A,3,01,02,03,04,05,06,07,08,09,10,11,12,1.0,1.0,1.0*30
$GPRMC,203754.178,A,4216.497,N,08344.421,W,015.9,270.0,060919,000.0,W*69
$GPGGA,203755.178,4216.497,N,08344.427,W,1,12,1.0,0.0,M,0.0,M,,*75
$GPGSA,A,3,01,02,03,04,05,06,07,08,09,10,11,12,1.0,1.0,1.0*30
$GPRMC,203755.178,A,4216.497,N,08344.427,W,011.6,270.0,060919,000.0,W*65
$GPGGA,203756.178,4216.497,N,08344.431,W,1,12,1.0,0.0,M,0.0,M,,*71
$GPGSA,A,3,01,02,03,04,05,06,07,08,09,10,11,12,1.0,1.0,1.0*30
$GPRMC,203756.178,A,4216.497,N,08344.431,W,012.0,267.0,060919,000.0,W*62
$GPGGA,203757.178,4216.497,N,08344.436,W,1,12,1.0,0.0,M,0.0,M,,*77
$GPGSA,A,3,01,02,03,04,05,06,07,08,09,10,11,12,1.0,1.0,1.0*30
$GPRMC,203757.178,A,4216.497,N,08344.436,W,010.3,270.0,060919,000.0,W*63
$GPGGA,203758.178,4216.497,N,08344.440,W,1,12,1.0,0.0,M,0.0,M,,*79
$GPGSA,A,3,01,02,03,04,05,06,07,08,09,10,11,12,1.0,1.0,1.0*30
$GPRMC,203758.178,A,4216.497,N,08344.440,W,007.0,299.7,060919,000.0,W*68
$GPGGA,203759.178,4216.498,N,08344.442,W,1,12,1.0,0.0,M,0.0,M,,*75
$GPGSA,A,3,01,02,03,04,05,06,07,08,09,10,11,12,1.0,1.0,1.0*30
$GPRMC,203759.178,A,4216.498,N,08344.442,W,006.0,005.5,060919,000.0,W*60
$GPGGA,203800.178,4216.499,N,08344.442,W,1,12,1.0,0.0,M,0.0,M,,*77
$GPGSA,A,3,01,02,03,04,05,06,07,08,09,10,11,12,1.0,1.0,1.0*30
$GPRMC,203800.178,A,4216.499,N,08344.442,W,007.8,351.5,060919,000.0,W*69
$GPGGA,203801.178,4216.502,N,08344.442,W,1,12,1.0,0.0,M,0.0,M,,*75
$GPGSA,A,3,01,02,03,04,05,06,07,08,09,10,11,12,1.0,1.0,1.0*30
$GPRMC,203801.178,A,4216.502,N,08344.442,W,006.4,000.0,060919,000.0,W*64
$GPGGA,203802.178,4216.503,N,08344.442,W,1,12,1.0,0.0,M,0.0,M,,*77
$GPGSA,A,3,01,02,03,04,05,06,07,08,09,10,11,12,1.0,1.0,1.0*30
$GPRMC,203802.178,A,4216.503,N,08344.442,W,005.6,000.0,060919,000.0,W*67
$GPGGA,203803.178,4216.505,N,08344.442,W,1,12,1.0,0.0,M,0.0,M,,*70
$GPGSA,A,3,01,02,03,04,05,06,07,08,09,10,11,12,1.0,1.0,1.0*30
$GPRMC,203803.178,A,4216.505,N,08344.442,W,006.9,004.8,060919,000.0,W*60
$GPGGA,203804.178,4216.507,N,08344.442,W,1,12,1.0,0.0,M,0.0,M,,*75
$GPGSA,A,3,01,02,03,04,05,06,07,08,09,10,11,12,1.0,1.0,1.0*30
$GPRMC,203804.178,A,4216.507,N,08344.442,W,011.2,000.0,060919,000.0,W*64
$GPGGA,203805.178,4216.510,N,08344.442,W,1,12,1.0,0.0,M,0.0,M,,*72
$GPGSA,A,3,01,02,03,04,05,06,07,08,09,10,11,12,1.0,1.0,1.0*30
$GPRMC,203805.178,A,4216.510,N,08344.442,W,009.4,356.5,060919,000.0,W*69
$GPGGA,203806.178,4216.512,N,08344.442,W,1,12,1.0,0.0,M,0.0,M,,*73
$GPGSA,A,3,01,02,03,04,05,06,07,08,09,10,11,12,1.0,1.0,1.0*30
$GPRMC,203806.178,A,4216.512,N,08344.442,W,009.9,000.0,060919,000.0,W*60
$GPGGA,203807.178,4216.515,N,08344.442,W,1,12,1.0,0.0,M,0.0,M,,*75
$GPGSA,A,3,01,02,03,04,05,06,07,08,09,10,11,12,1.0,1.0,1.0*30
$GPRMC,203807.178,A,4216.515,N,08344.442,W,005.6,000.0,060919,000.0,W*65
$GPGGA,203808.178,4216.517,N,08344.442,W,1,12,1.0,0.0,M,0.0,M,,*78
$GPGSA,A,3,01,02,03,04,05,06,07,08,09,10,11,12,1.0,1.0,1.0*30
$GPRMC,203808.178,A,4216.517,N,08344.442,W,003.0,000.0,060919,000.0,W*68
$GPGGA,203809.178,4216.518,N,08344.442,W,1,12,1.0,0.0,M,0.0,M,,*76
$GPGSA,A,3,01,02,03,04,05,06,07,08,09,10,11,12,1.0,1.0,1.0*30
$GPRMC,203809.178,A,4216.518,N,08344.442,W,000.0,000.0,060919,000.0,W*65
$GPGGA,203810.178,4216.518,N,08344.442,W,1,12,1.0,0.0,M,0.0,M,,*7E
$GPGSA,A,3,01,02,03,04,05,06,07,08,09,10,11,12,1.0,1.0,1.0*30
$GPRMC,203810.178,A,4216.518,N,08344.442,W,000.0,000.0,060919,000.0,W*6D
$GPGGA,203811.178,4216.518,N,08344.442,W,1,12,1.0,0.0,M,0.0,M,,*7F
$GPGSA,A,3,01,02,03,04,05,06,07,08,09,10,11,12,1.0,1.0,1.0*30
$GPRMC,203811.178,A,4216.518,N,08344.442,W,000.0,000.0,060919,000.0,W*6C
$GPGGA,203812.178,4216.518,N,08344.442,W,1,12,1.0,0.0,M,0.0,M,,*7C
$GPGSA,A,3,01,02,03,04,05,06,07,08,09,10,11,12,1.0,1.0,1.0*30
$GPRMC,203812.178,A,4216.518,N,08344.442,W,000.0,000.0,060919,000.0,W*6F
$GPGGA,203813.178,4216.518,N,08344.442,W,1,12,1.0,0.0,M,0.0,M,,*7D
$GPGSA,A,3,01,02,03,04,05,06,07,08,09,10,11,12,1.0,1.0,1.0*30
$GPRMC,203813.178,A,4216.518,N,08344.442,W,000.0,000.0,060919,000.0,W*6E
$GPGGA,203814.178,4216.518,N,08344.442,W,1,12,1.0,0.0,M,0.0,M,,*7A
$GPGSA,A,3,01,02,03,04,05,06,07,08,09,10,11,12,1.0,1.0,1.0*30
$GPRMC,203814.178,A,4216.518,N,08344.442,W,000.0,000.0,060919,000.0,W*69
$GPGGA,203815.178,4216.518,N,08344.442,W,1,12,1.0,0.0,M,0.0,M,,*7B
$GPGSA,A,3,01,02,03,04,05,06,07,08,09,10,11,12,1.0,1.0,1.0*30
$GPRMC,203815.178,A,4216.518,N,08344.442,W,009.9,000.0,060919,000.0,W*68
$GPGGA,203816.178,4216.520,N,08344.442,W,1,12,1.0,0.0,M,0.0,M,,*73
$GPGSA,A,3,01,02,03,04,05,06,07,08,09,10,11,12,1.0,1.0,1.0*30
$GPRMC,203816.178,A,4216.520,N,08344.442,W,009.9,000.0,060919,000.0,W*60
$GPGGA,203817.178,4216.523,N,08344.442,W,1,12,1.0,0.0,M,0.0,M,,*71
$GPGSA,A,3,01,02,03,04,05,06,07,08,09,10,11,12,1.0,1.0,1.0*30
$GPRMC,203817.178,A,4216.523,N,08344.442,W,007.3,000.0,060919,000.0,W*66
$GPGGA,203818.178,4216.525,N,08344.442,W,1,12,1.0,0.0,M,0.0,M,,*78
$GPGSA,A,3,01,02,03,04,05,06,07,08,09,10,11,12,1.0,1.0,1.0*30
$GPRMC,203818.178,A,4216.525,N,08344.442,W,009.0,356.3,060919,000.0,W*61
$GPGGA,203819.178,4216.528,N,08344.442,W,1,12,1.0,0.0,M,0.0,M,,*74
$GPGSA,A,3,01,02,03,04,05,06,07,08,09,10,11,12,1.0,1.0,1.0*30
$GPRMC,203819.178,A,4216.528,N,08344.442,W,006.9,000.0,060919,000.0,W*68
$GPGGA,203820.178,4216.530,N,08344.442,W,1,12,1.0,0.0,M,0.0,M,,*77
$GPGSA,A,3,01,02,03,04,05,06,07,08,09,10,11,12,1.0,1.0,1.0*30
$GPRMC,203820.178,A,4216.530,N,08344.442,W,012.4,357.3,060919,000.0,W*61
$GPGGA,203821.178,4216.533,N,08344.442,W,1,12,1.0,0.0,M,0.0,M,,*75
$GPGSA,A,3,01,02,03,04,05,06,07,08,09,10,11,12,1.0,1.0,1.0*30
$GPRMC,203821.178,A,4216.533,N,08344.442,W,006.4,000.0,060919,000.0,W*64
$GPGGA,203822.178,4216.535,N,08344.442,W,1,12,1.0,0.0,M,0.0,M,,*70
$GPGSA,A,3,01,02,03,04,05,06,07,08,09,10,11,12,1.0,1.0,1.0*30
$GPRMC,203822.178,A,4216.535,N,08344.442,W,010.3,000.0,060919,000.0,W*61
$GPGGA,203823.178,4216.538,N,08344.442,W,1,12,1.0,0.0,M,0.0,M,,*7C
$GPGSA,A,3,01,02,03,04,05,06,07,08,09,10,11,12,1.0,1.0,1.0*30
$GPRMC,203823.178,A,4216.538,N,08344.442,W,009.0,000.0,060919,000.0,W*66
$GPGGA,203824.178,4216.540,N,08344.442,W,1,12,1.0,0.0,M,0.0,M,,*74
$GPGSA,A,3,01,02,03,04,05,06,07,08,09,10,11,12,1.0,1.0,1.0*30
$GPRMC,203824.178,A,4216.540,N,08344.442,W,008.1,000.0,060919,000.0,W*6E
$GPGGA,203825.178,4216.542,N,08344.442,W,1,12,1.0,0.0,M,0.0,M,,*77
$GPGSA,A,3,01,02,03,04,05,06,07,08,09,10,11,12,1.0,1.0,1.0*30
$GPRMC,203825.178,A,4216.542,N,08344.442,W,011.6,357.1,060919,000.0,W*62
$GPGGA,203826.178,4216.546,N,08344.442,W,1,12,1.0,0.0,M,0.0,M,,*70
$GPGSA,A,3,01,02,03,04,05,06,07,08,09,10,11,12,1.0,1.0,1.0*30
$GPRMC,203826.178,A,4216.546,N,08344.442,W,009.0,356.3,060919,000.0,W*69
$GPGGA,203827.178,4216.548,N,08344.443,W,1,12,1.0,0.0,M,0.0,M,,*7E
$GPGSA,A,3,01,02,03,04,05,06,07,08,09,10,11,12,1.0,1.0,1.0*30
$GPRMC,203827.178,A,4216.548,N,08344.443,W,015.0,357.8,060919,000.0,W*60
$GPGGA,203828.178,4216.552,N,08344.443,W,1,12,1.0,0.0,M,0.0,M,,*7A
$GPGSA,A,3,01,02,03,04,05,06,07,08,09,10,11,12,1.0,1.0,1.0*30
$GPRMC,203828.178,A,4216.552,N,08344.443,W,010.3,003.2,060919,000.0,W*6A
$GPGGA,203829.178,4216.555,N,08344.443,W,1,12,1.0,0.0,M,0.0,M,,*7C
$GPGSA,A,3,01,02,03,04,05,06,07,08,09,10,11,12,1.0,1.0,1.0*30
$GPRMC,203829.178,A,4216.555,N,08344.443,W,009.4,000.0,060919,000.0,W*62
$GPGGA,203830.178,4216.558,N,08344.443,W,1,12,1.0,0.0,M,0.0,M,,*79
$GPGSA,A,3,01,02,03,04,05,06,07,08,09,10,11,12,1.0,1.0,1.0*30
$GPRMC,203830.178,A,4216.558,N,08344.443,W,019.4,358.8,060919,000.0,W*60
$GPGGA,203831.178,4216.563,N,08344.443,W,1,12,1.0,0.0,M,0.0,M,,*70
$GPGSA,A,3,01,02,03,04,05,06,07,08,09,10,11,12,1.0,1.0,1.0*30
$GPRMC,203831.178,A,4216.563,N,08344.443,W,014.6,002.3,060919,000.0,W*61
$GPGGA,203832.178,4216.567,N,08344.442,W,1,12,1.0,0.0,M,0.0,M,,*76
$GPGSA,A,3,01,02,03,04,05,06,07,08,09,10,11,12,1.0,1.0,1.0*30
$GPRMC,203832.178,A,4216.567,N,08344.442,W,017.2,356.1,060919,000.0,W*60
$GPGGA,203833.178,4216.572,N,08344.443,W,1,12,1.0,0.0,M,0.0,M,,*72
$GPGSA,A,3,01,02,03,04,05,06,07,08,09,10,11,12,1.0,1.0,1.0*30
$GPRMC,203833.178,A,4216.572,N,08344.443,W,013.3,000.0,060919,000.0,W*60
$GPGGA,203834.178,4216.576,N,08344.443,W,1,12,1.0,0.0,M,0.0,M,,*71
$GPGSA,A,3,01,02,03,04,05,06,07,08,09,10,11,12,1.0,1.0,1.0*30
$GPRMC,203834.178,A,4216.576,N,08344.443,W,009.0,000.0,060919,000.0,W*6B
$GPGGA,203835.178,4216.578,N,08344.443,W,1,12,1.0,0.0,M,0.0,M,,*7E
$GPGSA,A,3,01,02,03,04,05,06,07,08,09,10,11,12,1.0,1.0,1.0*30
$GPRMC,203835.178,A,4216.578,N,08344.443,W,014.6,355.5,060919,000.0,W*68
$GPGGA,203836.178,4216.582,N,08344.443,W,1,12,1.0,0.0,M,0.0,M,,*78
$GPGSA,A,3,01,02,03,04,05,06,07,08,09,10,11,12,1.0,1.0,1.0*30
$GPRMC,203836.178,A,4216.582,N,08344.443,W,015.5,004.3,060919,000.0,W*6D
$GPGGA,203837.178,4216.586,N,08344.443,W,1,12,1.0,0.0,M,0.0,M,,*7D
$GPGSA,A,3,01,02,03,04,05,06,07,08,09,10,11,12,1.0,1.0,1.0*30
$GPRMC,203837.178,A,4216.586,N,08344.443,W,013.8,352.8,060919,000.0,W*68
$GPGGA,203838.178,4216.590,N,08344.443,W,1,12,1.0,0.0,M,0.0,M,,*75
$GPGSA,A,3,01,02,03,04,05,06,07,08,09,10,11,12,1.0,1.0,1.0*30
$GPRMC,203838.178,A,4216.590,N,08344.443,W,013.3,000.0,060919,000.0,W*67
$GPGGA,203839.178,4216.594,N,08344.443,W,1,12,1.0,0.0,M,0.0,M,,*70
$GPGSA,A,3,01,02,03,04,05,06,07,08,09,10,11,12,1.0,1.0,1.0*30
$GPRMC,203839.178,A,4216.594,N,08344.443,W,011.6,354.3,060919,000.0,W*64
$GPGGA,203840.178,4216.597,N,08344.444,W,1,12,1.0,0.0,M,0.0,M,,*7A
$GPGSA,A,3,01,02,03,04,05,06,07,08,09,10,11,12,1.0,1.0,1.0*30
$GPRMC,203840.178,A,4216.597,N,08344.444,W,010.7,000.0,060919,000.0,W*6F
$GPGGA,203841.178,4216.600,N,08344.444,W,1,12,1.0,0.0,M,0.0,M,,*76
$GPGSA,A,3,01,02,03,04,05,06,07,08,09,10,11,12,1.0,1.0,1.0*30
$GPRMC,203841.178,A,4216.600,N,08344.444,W,012.0,000.0,060919,000.0,W*66
$GPGGA,203842.178,4216.603,N,08344.444,W,1,12,1.0,0.0,M,0.0,M,,*76
$GPGSA,A,3,01,02,03,04,05,06,07,08,09,10,11,12,1.0,1.0,1.0*30
$GPRMC,203842.178,A,4216.603,N,08344.444,W,011.6,357.1,060919,000.0,W*63
$GPGGA,203843.178,4216.607,N,08344.444,W,1,12,1.0,0.0,M,0.0,M,,*73
$GPGSA,A,3,01,02,03,04,05,06,07,08,09,10,11,12,1.0,1.0,1.0*30
$GPRMC,203843.178,A,4216.607,N,08344.444,W,017.2,358.1,060919,000.0,W*6B
$GPGGA,203844.178,4216.611,N,08344.444,W,1,12,1.0,0.0,M,0.0,M,,*73
$GPGSA,A,3,01,02,03,04,05,06,07,08,09,10,11,12,1.0,1.0,1.0*30
$GPRMC,203844.178,A,4216.611,N,08344.444,W,017.2,356.1,060919,000.0,W*65
$GPGGA,203845.178,4216.616,N,08344.444,W,1,12,1.0,0.0,M,0.0,M,,*75
$GPGSA,A,3,01,02,03,04,05,06,07,08,09,10,11,12,1.0,1.0,1.0*30
$GPRMC,203845.178,A,4216.616,N,08344.444,W,018.1,000.1,060919,000.0,W*6F
$GPGGA,203846.178,4216.621,N,08344.444,W,1,12,1.0,0.0,M,0.0,M,,*72
$GPGSA,A,3,01,02,03,04,05,06,07,08,09,10,11,12,1.0,1.0,1.0*30
$GPRMC,203846.178,A,4216.621,N,08344.444,W,020.2,000.0,060919,000.0,W*61
$GPGGA,203847.178,4216.627,N,08344.444,W,1,12,1.0,0.0,M,0.0,M,,*75
$GPGSA,A,3,01,02,03,04,05,06,07,08,09,10,11,12,1.0,1.0,1.0*30
$GPRMC,203847.178,A,4216.627,N,08344.444,W,034.3,357.1,060919,000.0,W*62
$GPGGA,203848.178,4216.636,N,08344.445,W,1,12,1.0,0.0,M,0.0,M,,*7B
$GPGSA,A,3,01,02,03,04,05,06,07,08,09,10,11,12,1.0,1.0,1.0*30
$GPRMC,203848.178,A,4216.636,N,08344.445,W,039.5,357.5,060919,000.0,W*63
$GPGGA,203849.178,4216.647,N,08344.445,W,1,12,1.0,0.0,M,0.0,M,,*7C
$GPGSA,A,3,01,02,03,04,05,06,07,08,09,10,11,12,1.0,1.0,1.0*30
$GPRMC,203849.178,A,4216.647,N,08344.445,W,041.2,358.4,060919,000.0,W*62
$GPGGA,203850.178,4216.659,N,08344.446,W,1,12,1.0,0.0,M,0.0,M,,*78
$GPGSA,A,3,01,02,03,04,05,06,07,08,09,10,11,12,1.0,1.0,1.0*30
$GPRMC,203850.178,A,4216.659,N,08344.446,W,040.9,355.7,060919,000.0,W*62
$GPGGA,203851.178,4216.670,N,08344.446,W,1,12,1.0,0.0,M,0.0,M,,*72
$GPGSA,A,3,01,02,03,04,05,06,07,08,09,10,11,12,1.0,1.0,1.0*30
$GPRMC,203851.178,A,4216.670,N,08344.446,W,043.8,359.2,060919,000.0,W*63
$GPGGA,203852.178,4216.682,N,08344.447,W,1,12,1.0,0.0,M,0.0,M,,*7D
$GPGSA,A,3,01,02,03,04,05,06,07,08,09,10,11,12,1.0,1.0,1.0*30
$GPRMC,203852.178,A,4216.682,N,08344.447,W,027.5,357.6,060919,000.0,W*69
$GPGGA,203853.178,4216.690,N,08344.447,W,1,12,1.0,0.0,M,0.0,M,,*7F
$GPGSA,A,3,01,02,03,04,05,06,07,08,09,10,11,12,1.0,1.0,1.0*30
$GPRMC,203853.178,A,4216.690,N,08344.447,W,006.9,001.4,060919,000.0,W*66
$GPGGA,203854.178,4216.692,N,08344.447,W,1,12,1.0,0.0,M,0.0,M,,*7A
$GPGSA,A,3,01,02,03,04,05,06,07,08,09,10,11,12,1.0,1.0,1.0*30
$GPRMC,203854.178,A,4216.692,N,08344.447,W,006.9,000.0,060919,000.0,W*66
$GPGGA,203855.178,4216.694,N,08344.447,W,1,12,1.0,0.0,M,0.0,M,,*7D
$GPGSA,A,3,01,02,03,04,05,06,07,08,09,10,11,12,1.0,1.0,1.0*30
$GPRMC,203855.178,A,4216.694,N,08344.447,W,007.3,000.0,060919,000.0,W*6A
$GPGGA,203856.178,4216.696,N,08344.447,W,1,12,1.0,0.0,M,0.0,M,,*7C
$GPGSA,A,3,01,02,03,04,05,06,07,08,09,10,11,12,1.0,1.0,1.0*30
$GPRMC,203856.178,A,4216.696,N,08344.447,W,003.5,350.4,060919,000.0,W*6B
$GPGGA,203857.178,4216.697,N,08344.447,W,1,12,1.0,0.0,M,0.0,M,,*7C
$GPGSA,A,3,01,02,03,04,05,06,07,08,09,10,11,12,1.0,1.0,1.0*30
$GPRMC,203857.178,A,4216.697,N,08344.447,W,004.7,000.0,060919,000.0,W*6C
$GPGGA,203858.178,4216.698,N,08344.447,W,1,12,1.0,0.0,M,0.0,M,,*7C
$GPGSA,A,3,01,02,03,04,05,06,07,08,09,10,11,12,1.0,1.0,1.0*30
$GPRMC,203858.178,A,4216.698,N,08344.447,W,000.0,000.0,060919,000.0,W*6F
$GPGGA,203859.178,4216.698,N,08344.447,W,1,12,1.0,0.0,M,0.0,M,,*7D
$GPGSA,A,3,01,02,03,04,05,06,07,08,09,10,11,12,1.0,1.0,1.0*30
$GPRMC,203859.178,A,4216.698,N,08344.447,W,000.0,000.0,060919,000.0,W*6E
$GPGGA,203900.178,4216.698,N,08344.447,W,1,12,1.0,0.0,M,0.0,M,,*70
$GPGSA,A,3,01,02,03,04,05,06,07,08,09,10,11,12,1.0,1.0,1.0*30
$GPRMC,203900.178,A,4216.698,N,08344.447,W,001.3,000.0,060919,000.0,W*61
$GPGGA,203901.178,4216.698,N,08344.447,W,1,12,1.0,0.0,M,0.0,M,,*71
$GPGSA,A,3,01,02,03,04,05,06,07,08,09,10,11,12,1.0,1.0,1.0*30
$GPRMC,203901.178,A,4216.698,N,08344.447,W,000.4,000.0,060919,000.0,W*66
$GPGGA,203902.178,4216.698,N,08344.447,W,1,12,1.0,0.0,M,0.0,M,,*72
$GPGSA,A,3,01,02,03,04,05,06,07,08,09,10,11,12,1.0,1.0,1.0*30
$GPRMC,203902.178,A,4216.698,N,08344.447,W,000.0,000.0,060919,000.0,W*61
$GPGGA,203903.178,4216.698,N,08344.447,W,1,12,1.0,0.0,M,0.0,M,,*73
$GPGSA,A,3,01,02,03,04,05,06,07,08,09,10,11,12,1.0,1.0,1.0*30
$GPRMC,203903.178,A,4216.698,N,08344.447,W,005.1,000.0,060919,000.0,W*64
$GPGGA,203904.178,4216.700,N,08344.447,W,1,12,1.0,0.0,M,0.0,M,,*74
$GPGSA,A,3,01,02,03,04,05,06,07,08,09,10,11,12,1.0,1.0,1.0*30
$GPRMC,203904.178,A,4216.700,N,08344.447,W,006.9,350.4,060919,000.0,W*6A
$GPGGA,203905.178,4216.702,N,08344.447,W,1,12,1.0,0.0,M,0.0,M,,*77
$GPGSA,A,3,01,02,03,04,05,06,07,08,09,10,11,12,1.0,1.0,1.0*30
$GPRMC,203905.178,A,4216.702,N,08344.447,W,003.4,000.0,060919,000.0,W*63
$GPGGA,203906.178,4216.703,N,08344.447,W,1,12,1.0,0.0,M,0.0,M,,*75
$GPGSA,A,3,01,02,03,04,05,06,07,08,09,10,11,12,1.0,1.0,1.0*30
$GPRMC,203906.178,A,4216.703,N,08344.447,W,006.0,000.0,060919,000.0,W*60
$GPGGA,203907.178,4216.704,N,08344.447,W,1,12,1.0,0.0,M,0.0,M,,*73
$GPGSA,A,3,01,02,03,04,05,06,07,08,09,10,11,12,1.0,1.0,1.0*30
$GPRMC,203907.178,A,4216.704,N,08344.447,W,006.9,004.8,060919,000.0,W*63
$GPGGA,203908.178,4216.706,N,08344.447,W,1,12,1.0,0.0,M,0.0,M,,*7E
$GPGSA,A,3,01,02,03,04,05,06,07,08,09,10,11,12,1.0,1.0,1.0*30
$GPRMC,203908.178,A,4216.706,N,08344.447,W,008.6,352.3,060919,000.0,W*64
$GPGGA,203909.178,4216.709,N,08344.447,W,1,12,1.0,0.0,M,0.0,M,,*70
$GPGSA,A,3,01,02,03,04,05,06,07,08,09,10,11,12,1.0,1.0,1.0*30
$GPRMC,203909.178,A,4216.709,N,08344.447,W,009.9,000.0,060919,000.0,W*63
$GPGGA,203910.178,4216.711,N,08344.447,W,1,12,1.0,0.0,M,0.0,M,,*71
$GPGSA,A,3,01,02,03,04,05,06,07,08,09,10,11,12,1.0,1.0,1.0*30
$GPRMC,203910.178,A,4216.711,N,08344.447,W,003.4,000.0,060919,000.0,W*65
$GPGGA,203911.178,4216.712,N,08344.447,W,1,12,1.0,0.0,M,0.0,M,,*73
$GPGSA,A,3,01,02,03,04,05,06,07,08,09,10,11,12,1.0,1.0,1.0*30
$GPRMC,203911.178,A,4216.712,N,08344.447,W,000.5,000.0,060919,000.0,W*65
$GPGGA,203912.178,4216.712,N,08344.447,W,1,12,1.0,0.0,M,0.0,M,,*70
$GPGSA,A,3,01,02,03,04,05,06,07,08,09,10,11,12,1.0,1.0,1.0*30
$GPRMC,203912.178,A,4216.712,N,08344.447,W,000.0,000.0,060919,000.0,W*63
$GPGGA,203913.178,4216.712,N,08344.447,W,1,12,1.0,0.0,M,0.0,M,,*71
$GPGSA,A,3,01,02,03,04,05,06,07,08,09,10,11,12,1.0,1.0,1.0*30
$GPRMC,203913.178,A,4216.712,N,08344.447,W,000.0,000.0,060919,000.0,W*62
$GPGGA,203914.178,4216.712,N,08344.447,W,1,12,1.0,0.0,M,0.0,M,,*76
$GPGSA,A,3,01,02,03,04,05,06,07,08,09,10,11,12,1.0,1.0,1.0*30
$GPRMC,203914.178,A,4216.712,N,08344.447,W,007.5,039.0,060919,000.0,W*6D
$GPGGA,203915.178,4216.714,N,08344.446,W,1,12,1.0,0.0,M,0.0,M,,*70
$GPGSA,A,3,01,02,03,04,05,06,07,08,09,10,11,12,1.0,1.0,1.0*30
$GPRMC,203915.178,A,4216.714,N,08344.446,W,015.0,087.6,060919,000.0,W*6E
$GPGGA,203916.178,4216.714,N,08344.440,W,1,12,1.0,0.0,M,0.0,M,,*75
$GPGSA,A,3,01,02,03,04,05,06,07,08,09,10,11,12,1.0,1.0,1.0*30
$GPRMC,203916.178,A,4216.714,N,08344.440,W,011.2,086.7,060919,000.0,W*6D
$GPGGA,203917.178,4216.715,N,08344.436,W,1,12,1.0,0.0,M,0.0,M,,*74
$GPGSA,A,3,01,02,03,04,05,06,07,08,09,10,11,12,1.0,1.0,1.0*30
$GPRMC,203917.178,A,4216.715,N,08344.436,W,016.8,092.2,060919,000.0,W*61
$GPGGA,203918.178,4216.714,N,08344.430,W,1,12,1.0,0.0,M,0.0,M,,*7C
$GPGSA,A,3,01,02,03,04,05,06,07,08,09,10,11,12,1.0,1.0,1.0*30
$GPRMC,203918.178,A,4216.714,N,08344.430,W,018.5,089.0,060919,000.0,W*62
$GPGGA,203919.178,4216.715,N,08344.423,W,1,12,1.0,0.0,M,0.0,M,,*7E
$GPGSA,A,3,01,02,03,04,05,06,07,08,09,10,11,12,1.0,1.0,1.0*30
$GPRMC,203919.178,A,4216.715,N,08344.423,W,016.3,088.9,060919,000.0,W*60
$GPGGA,203920.178,4216.715,N,08344.417,W,1,12,1.0,0.0,M,0.0,M,,*73
$GPGSA,A,3,01,02,03,04,05,06,07,08,09,10,11,12,1.0,1.0,1.0*30
$GPRMC,203920.178,A,4216.715,N,08344.417,W,016.3,087.8,060919,000.0,W*63
$GPGGA,203921.178,4216.715,N,08344.411,W,1,12,1.0,0.0,M,0.0,M,,*74
$GPGSA,A,3,01,02,03,04,05,06,07,08,09,10,11,12,1.0,1.0,1.0*30
$GPRMC,203921.178,A,4216.715,N,08344.411,W,018.5,089.0,060919,000.0,W*6A
$GPGGA,203922.178,4216.715,N,08344.404,W,1,12,1.0,0.0,M,0.0,M,,*73
$GPGSA,A,3,01,02,03,04,05,06,07,08,09,10,11,12,1.0,1.0,1.0*30
$GPRMC,203922.178,A,4216.715,N,08344.404,W,016.8,086.7,060919,000.0,W*66
$GPGGA,203923.178,4216.715,N,08344.398,W,1,12,1.0,0.0,M,0.0,M,,*70
$GPGSA,A,3,01,02,03,04,05,06,07,08,09,10,11,12,1.0,1.0,1.0*30
$GPRMC,203923.178,A,4216.715,N,08344.398,W,018.9,091.0,060919,000.0,W*6B
$GPGGA,203924.178,4216.715,N,08344.391,W,1,12,1.0,0.0,M,0.0,M,,*7E
$GPGSA,A,3,01,02,03,04,05,06,07,08,09,10,11,12,1.0,1.0,1.0*30
$GPRMC,203924.178,A,4216.715,N,08344.391,W,012.9,087.2,060919,000.0,W*6A
$GPGGA,203925.178,4216.716,N,08344.386,W,1,12,1.0,0.0,M,0.0,M,,*7A
$GPGSA,A,3,01,02,03,04,05,06,07,08,09,10,11,12,1.0,1.0,1.0*30
$GPRMC,203925.178,A,4216.716,N,08344.386,W,018.4,090.0,060919,000.0,W*6D
$GPGGA,203926.178,4216.716,N,08344.379,W,1,12,1.0,0.0,M,0.0,M,,*79
$GPGSA,A,3,01,02,03,04,05,06,07,08,09,10,11,12,1.0,1.0,1.0*30
$GPRMC,203926.178,A,4216.716,N,08344.379,W,011.6,088.4,060919,000.0,W*68
$GPGGA,203927.178,4216.716,N,08344.374,W,1,12,1.0,0.0,M,0.0,M,,*75
$GPGSA,A,3,01,02,03,04,05,06,07,08,09,10,11,12,1.0,1.0,1.0*30
$GPRMC,203927.178,A,4216.716,N,08344.374,W,012.8,104.8,060919,000.0,W*60
$GPGGA,203928.178,4216.714,N,08344.370,W,1,12,1.0,0.0,M,0.0,M,,*7C
$GPGSA,A,3,01,02,03,04,05,06,07,08,09,10,11,12,1.0,1.0,1.0*30
$GPRMC,203928.178,A,4216.714,N,08344.370,W,013.1,107.6,060919,000.0,W*6C
$GPGGA,203929.178,4216.713,N,08344.365,W,1,12,1.0,0.0,M,0.0,M,,*7E
$GPGSA,A,3,01,02,03,04,05,06,07,08,09,10,11,12,1.0,1.0,1.0*30
$GPRMC,203929.178,A,4216.713,N,08344.365,W,015.4,091.2,060919,000.0,W*67
$GPGGA,203930.178,4216.713,N,08344.360,W,1,12,1.0,0.0,M,0.0,M,,*73
$GPGSA,A,3,01,02,03,04,05,06,07,08,09,10,11,12,1.0,1.0,1.0*30
$GPRMC,203930.178,A,4216.713,N,08344.360,W,020.6,090.0,060919,000.0,W*6D
$GPGGA,203931.178,4216.713,N,08344.352,W,1,12,1.0,0.0,M,0.0,M,,*73
$GPGSA,A,3,01,02,03,04,05,06,07,08,09,10,11,12,1.0,1.0,1.0*30
$GPRMC,203931.178,A,4216.713,N,08344.352,W,016.7,088.9,060919,000.0,W*69
$GPGGA,203932.178,4216.713,N,08344.346,W,1,12,1.0,0.0,M,0.0,M,,*75
$GPGSA,A,3,01,02,03,04,05,06,07,08,09,10,11,12,1.0,1.0,1.0*30
$GPRMC,203932.178,A,4216.713,N,08344.346,W,015.4,088.8,060919,000.0,W*6E
$GPGGA,203933.178,4216.713,N,08344.340,W,1,12,1.0,0.0,M,0.0,M,,*72
$GPGSA,A,3,01,02,03,04,05,06,07,08,09,10,11,12,1.0,1.0,1.0*30
$GPRMC,203933.178,A,4216.713,N,08344.340,W,016.3,091.1,060919,000.0,W*6C
$GPGGA,203934.178,4216.713,N,08344.334,W,1,12,1.0,0.0,M,0.0,M,,*76
$GPGSA,A,3,01,02,03,04,05,06,07,08,09,10,11,12,1.0,1.0,1.0*30
$GPRMC,203934.178,A,4216.713,N,08344.334,W,012.0,090.0,060919,000.0,W*6F
$GPGGA,203935.178,4216.713,N,08344.329,W,1,12,1.0,0.0,M,0.0,M,,*7B
$GPGSA,A,3,01,02,03,04,05,06,07,08,09,10,11,12,1.0,1.0,1.0*30
$GPRMC,203935.178,A,4216.713,N,08344.329,W,011.6,090.0,060919,000.0,W*67
$GPGGA,203936.178,4216.713,N,08344.325,W,1,12,1.0,0.0,M,0.0,M,,*74
$GPGSA,A,3,01,02,03,04,05,06,07,08,09,10,11,12,1.0,1.0,1.0*30
$GPRMC,203936.178,A,4216.713,N,08344.325,W,010.1,089.3,060919,000.0,W*65
$GPGGA,203937.178,4216.713,N,08344.321,W,1,12,1.0,0.0,M,0.0,M,,*71
$GPGSA,A,3,01,02,03,04,05,06,07,08,09,10,11,12,1.0,1.0,1.0*30
$GPRMC,203937.178,A,4216.713,N,08344.321,W,005.6,083.5,060919,000.0,W*6F
$GPGGA,203938.178,4216.713,N,08344.319,W,1,12,1.0,0.0,M,0.0,M,,*75
$GPGSA,A,3,01,02,03,04,05,06,07,08,09,10,11,12,1.0,1.0,1.0*30
$GPRMC,203938.178,A,4216.713,N,08344.319,W,002.2,090.0,060919,000.0,W*6F
$GPGGA,203939.178,4216.713,N,08344.318,W,1,12,1.0,0.0,M,0.0,M,,*75
$GPGSA,A,3,01,02,03,04,05,06,07,08,09,10,11,12,1.0,1.0,1.0*30
$GPRMC,203939.178,A,4216.713,N,08344.318,W,000.3,000.0,060919,000.0,W*65
$GPGGA,203940.178,4216.713,N,08344.318,W,1,12,1.0,0.0,M,0.0,M,,*7B
$GPGSA,A,3,01,02,03,04,05,06,07,08,09,10,11,12,1.0,1.0,1.0*30
$GPRMC,203940.178,A,4216.713,N,08344.318,W,000.3,000.0,060919,000.0,W*6B
$GPGGA,203941.178,4216.713,N,08344.318,W,1,12,1.0,0.0,M,0.0,M,,*7A
$GPGSA,A,3,01,02,03,04,05,06,07,08,09,10,11,12,1.0,1.0,1.0*30
$GPRMC,203941.178,A,4216.713,N,08344.318,W,000.3,000.0,060919,000.0,W*6A
$GPGGA,203942.178,4216.713,N,08344.318,W,1,12,1.0,0.0,M,0.0,M,,*79
$GPGSA,A,3,01,02,03,04,05,06,07,08,09,10,11,12,1.0,1.0,1.0*30
$GPRMC,203942.178,A,4216.713,N,08344.318,W,000.3,000.0,060919,000.0,W*69
$GPGGA,203943.178,4216.713,N,08344.318,W,1,12,1.0,0.0,M,0.0,M,,*78
$GPGSA,A,3,01,02,03,04,05,06,07,08,09,10,11,12,1.0,1.0,1.0*30
$GPRMC,203943.178,A,4216.713,N,08344.318,W,000.3,000.0,060919,000.0,W*68
$GPGGA,203944.178,4216.713,N,08344.318,W,1,12,1.0,0.0,M,0.0,M,,*7F
$GPGSA,A,3,01,02,03,04,05,06,07,08,09,10,11,12,1.0,1.0,1.0*30
$GPRMC,203944.178,A,4216.713,N,08344.318,W,012.9,091.4,060919,000.0,W*6A
$GPGGA,203945.178,4216.713,N,08344.313,W,1,12,1.0,0.0,M,0.0,M,,*75
$GPGSA,A,3,01,02,03,04,05,06,07,08,09,10,11,12,1.0,1.0,1.0*30
$GPRMC,203945.178,A,4216.713,N,08344.313,W,021.0,090.9,060919,000.0,W*65
$GPGGA,203946.178,4216.713,N,08344.305,W,1,12,1.0,0.0,M,0.0,M,,*71
$GPGSA,A,3,01,02,03,04,05,06,07,08,09,10,11,12,1.0,1.0,1.0*30
$GPRMC,203946.178,A,4216.713,N,08344.305,W,016.4,086.6,060919,000.0,W*69
$GPGGA,203947.178,4216.713,N,08344.299,W,1,12,1.0,0.0,M,0.0,M,,*74
$GPGSA,A,3,01,02,03,04,05,06,07,08,09,10,11,12,1.0,1.0,1.0*30
$GPRMC,203947.178,A,4216.713,N,08344.299,W,022.4,093.3,060919,000.0,W*6A
$GPGGA,203948.178,4216.713,N,08344.291,W,1,12,1.0,0.0,M,0.0,M,,*73
$GPGSA,A,3,01,02,03,04,05,06,07,08,09,10,11,12,1.0,1.0,1.0*30
$GPRMC,203948.178,A,4216.713,N,08344.291,W,014.2,086.1,060919,000.0,W*68
$GPGGA,203949.178,4216.713,N,08344.286,W,1,12,1.0,0.0,M,0.0,M,,*74
$GPGSA,A,3,01,02,03,04,05,06,07,08,09,10,11,12,1.0,1.0,1.0*30
$GPRMC,203949.178,A,4216.713,N,08344.286,W,018.0,088.0,060919,000.0,W*6E
$GPGGA,203950.178,4216.714,N,08344.279,W,1,12,1.0,0.0,M,0.0,M,,*7B
$GPGSA,A,3,01,02,03,04,05,06,07,08,09,10,11,12,1.0,1.0,1.0*30
$GPRMC,203950.178,A,4216.714,N,08344.279,W,017.2,089.3,060919,000.0,W*6E
$GPGGA,203951.178,4216.714,N,08344.272,W,1,12,1.0,0.0,M,0.0,M,,*71
$GPGSA,A,3,01,02,03,04,05,06,07,08,09,10,11,12,1.0,1.0,1.0*30
$GPRMC,203951.178,A,4216.714,N,08344.272,W,020.2,090.0,060919,000.0,W*6B
$GPGGA,203952.178,4216.714,N,08344.265,W,1,12,1.0,0.0,M,0.0,M,,*74
$GPGSA,A,3,01,02,03,04,05,06,07,08,09,10,11,12,1.0,1.0,1.0*30
$GPRMC,203952.178,A,4216.714,N,08344.265,W,020.2,088.2,060919,000.0,W*65
$GPGGA,203953.178,4216.714,N,08344.257,W,1,12,1.0,0.0,M,0.0,M,,*74
$GPGSA,A,3,01,02,03,04,05,06,07,08,09,10,11,12,1.0,1.0,1.0*30
$GPRMC,203953.178,A,4216.714,N,08344.257,W,021.5,090.9,060919,000.0,W*61
$GPGGA,203954.178,4216.714,N,08344.249,W,1,12,1.0,0.0,M,0.0,M,,*7C
$GPGSA,A,3,01,02,03,04,05,06,07,08,09,10,11,12,1.0,1.0,1.0*30
$GPRMC,203954.178,A,4216.714,N,08344.249,W,023.2,089.2,060919,000.0,W*6F
$GPGGA,203955.178,4216.714,N,08344.241,W,1,12,1.0,0.0,M,0.0,M,,*75
$GPGSA,A,3,01,02,03,04,05,06,07,08,09,10,11,12,1.0,1.0,1.0*30
$GPRMC,203955.178,A,4216.714,N,08344.241,W,015.5,087.6,060919,000.0,W*6E
$GPGGA,203956.178,4216.714,N,08344.235,W,1,12,1.0,0.0,M,0.0,M,,*75
$GPGSA,A,3,01,02,03,04,05,06,07,08,09,10,11,12,1.0,1.0,1.0*30
$GPRMC,203956.178,A,4216.714,N,08344.235,W,020.2,089.1,060919,000.0,W*66
$GPGGA,203957.178,4216.714,N,08344.227,W,1,12,1.0,0.0,M,0.0,M,,*77
$GPGSA,A,3,01,02,03,04,05,06,07,08,09,10,11,12,1.0,1.0,1.0*30
$GPRMC,203957.178,A,4216.714,N,08344.227,W,020.2,087.3,060919,000.0,W*68
$GPGGA,203958.178,4216.715,N,08344.220,W,1,12,1.0,0.0,M,0.0,M,,*7E
$GPGSA,A,3,01,02,03,04,05,06,07,08,09,10,11,12,1.0,1.0,1.0*30
$GPRMC,203958.178,A,4216.715,N,08344.220,W,018.0,092.0,060919,000.0,W*6F
$GPGGA,203959.178,4216.714,N,08344.213,W,1,12,1.0,0.0,M,0.0,M,,*7E
$GPGSA,A,3,01,02,03,04,05,06,07,08,09,10,11,12,1.0,1.0,1.0*30
$GPRMC,203959.178,A,4216.714,N,08344.213,W,018.4,090.0,060919,000.0,W*69
$GPGGA,204000.178,4216.714,N,08344.206,W,1,12,1.0,0.0,M,0.0,M,,*78
$GPGSA,A,3,01,02,03,04,05,06,07,08,09,10,11,12,1.0,1.0,1.0*30
$GPRMC,204000.178,A,4216.714,N,08344.206,W,020.2,089.1,060919,000.0,W*6B
$GPGGA,204001.178,4216.714,N,08344.198,W,1,12,1.0,0.0,M,0.0,M,,*7D
$GPGSA,A,3,01,02,03,04,05,06,07,08,09,10,11,12,1.0,1.0,1.0*30
$GPRMC,204001.178,A,4216.714,N,08344.198,W,016.4,086.6,060919,000.0,W*65
$GPGGA,204002.178,4216.715,N,08344.192,W,1,12,1.0,0.0,M,0.0,M,,*75
$GPGSA,A,3,01,02,03,04,05,06,07,08,09,10,11,12,1.0,1.0,1.0*30
$GPRMC,204002.178,A,4216.715,N,08344.192,W,018.9,091.0,060919,000.0,W*6E
$GPGGA,204003.178,4216.715,N,08344.185,W,1,12,1.0,0.0,M,0.0,M,,*72
$GPGSA,A,3,01,02,03,04,05,06,07,08,09,10,11,12,1.0,1.0,1.0*30
$GPRMC,204003.178,A,4216.715,N,08344.185,W,024.1,092.8,060919,000.0,W*65
$GPGGA,204004.178,4216.714,N,08344.176,W,1,12,1.0,0.0,M,0.0,M,,*78
$GPGSA,A,3,01,02,03,04,05,06,07,08,09,10,11,12,1.0,1.0,1.0*30
$GPRMC,204004.178,A,4216.714,N,08344.176,W,021.5,099.5,060919,000.0,W*68
$GPGGA,204005.178,4216.713,N,08344.168,W,1,12,1.0,0.0,M,0.0,M,,*71
$GPGSA,A,3,01,02,03,04,05,06,07,08,09,10,11,12,1.0,1.0,1.0*30
$GPRMC,204005.178,A,4216.713,N,08344.168,W,016.7,103.5,060919,000.0,W*65
$GPGGA,204006.178,4216.712,N,08344.162,W,1,12,1.0,0.0,M,0.0,M,,*79
$GPGSA,A,3,01,02,03,04,05,06,07,08,09,10,11,12,1.0,1.0,1.0*30
$GPRMC,204006.178,A,4216.712,N,08344.162,W,018.0,103.6,060919,000.0,W*67
$GPGGA,204007.178,4216.710,N,08344.156,W,1,12,1.0,0.0,M,0.0,M,,*7D
$GPGSA,A,3,01,02,03,04,05,06,07,08,09,10,11,12,1.0,1.0,1.0*30
$GPRMC,204007.178,A,4216.710,N,08344.156,W,020.5,109.9,060919,000.0,W*68
$GPGGA,204008.178,4216.708,N,08344.149,W,1,12,1.0,0.0,M,0.0,M,,*75
$GPGSA,A,3,01,02,03,04,05,06,07,08,09,10,11,12,1.0,1.0,1.0*30
$GPRMC,204008.178,A,4216.708,N,08344.149,W,021.3,116.9,060919,000.0,W*69
$GPGGA,204009.178,4216.704,N,08344.142,W,1,12,1.0,0.0,M,0.0,M,,*73
$GPGSA,A,3,01,02,03,04,05,06,07,08,09,10,11,12,1.0,1.0,1.0*30
$GPRMC,204009.178,A,4216.704,N,08344.142,W,000.5,000.0,060919,000.0,W*65
