$GPGGA,235249.888,4234.500,N,08311.831,W,1,12,1.0,0.0,M,0.0,M,,*7A
$GPGSA,A,3,01,02,03,04,05,06,07,08,09,10,11,12,1.0,1.0,1.0*30
$GPRMC,235249.888,A,4234.500,N,08311.831,W,085.5,176.9,130520,000.0,W*6A
$GPGGA,235250.888,4234.476,N,08311.830,W,1,12,1.0,0.0,M,0.0,M,,*73
$GPGSA,A,3,01,02,03,04,05,06,07,08,09,10,11,12,1.0,1.0,1.0*30
$GPRMC,235250.888,A,4234.476,N,08311.830,W,111.8,155.4,130520,000.0,W*6E
$GPGGA,235251.888,4234.446,N,08311.816,W,1,12,1.0,0.0,M,0.0,M,,*75
$GPGSA,A,3,01,02,03,04,05,06,07,08,09,10,11,12,1.0,1.0,1.0*30
$GPRMC,235251.888,A,4234.446,N,08311.816,W,116.2,177.7,130520,000.0,W*66
$GPGGA,235252.888,4234.414,N,08311.815,W,1,12,1.0,0.0,M,0.0,M,,*72
$GPGSA,A,3,01,02,03,04,05,06,07,08,09,10,11,12,1.0,1.0,1.0*30
$GPRMC,235252.888,A,4234.414,N,08311.815,W,128.2,176.9,130520,000.0,W*63
$GPGGA,235253.888,4234.379,N,08311.813,W,1,12,1.0,0.0,M,0.0,M,,*79
$GPGSA,A,3,01,02,03,04,05,06,07,08,09,10,11,12,1.0,1.0,1.0*30
$GPRMC,235253.888,A,4234.379,N,08311.813,W,121.4,176.7,130520,000.0,W*69
$GPGGA,235254.888,4234.345,N,08311.811,W,1,12,1.0,0.0,M,0.0,M,,*73
$GPGSA,A,3,01,02,03,04,05,06,07,08,09,10,11,12,1.0,1.0,1.0*30
$GPRMC,235254.888,A,4234.345,N,08311.811,W,109.4,177.6,130520,000.0,W*69
$GPGGA,235255.888,4234.315,N,08311.810,W,1,12,1.0,0.0,M,0.0,M,,*76
$GPGSA,A,3,01,02,03,04,05,06,07,08,09,10,11,12,1.0,1.0,1.0*30
$GPRMC,235255.888,A,4234.315,N,08311.810,W,092.5,185.7,130520,000.0,W*62
$GPGGA,235256.888,4234.289,N,08311.813,W,1,12,1.0,0.0,M,0.0,M,,*72
$GPGSA,A,3,01,02,03,04,05,06,07,08,09,10,11,12,1.0,1.0,1.0*30
$GPRMC,235256.888,A,4234.289,N,08311.813,W,118.6,195.6,130520,000.0,W*66
$GPGGA,235257.888,4234.257,N,08311.822,W,1,12,1.0,0.0,M,0.0,M,,*72
$GPGSA,A,3,01,02,03,04,05,06,07,08,09,10,11,12,1.0,1.0,1.0*30
$GPRMC,235257.888,A,4234.257,N,08311.822,W,112.7,178.8,130520,000.0,W*60
$GPGGA,235258.888,4234.226,N,08311.821,W,1,12,1.0,0.0,M,0.0,M,,*78
$GPGSA,A,3,01,02,03,04,05,06,07,08,09,10,11,12,1.0,1.0,1.0*30
$GPRMC,235258.888,A,4234.226,N,08311.821,W,066.7,087.8,130520,000.0,W*69
$GPGGA,235259.888,4234.226,N,08311.796,W,1,12,1.0,0.0,M,0.0,M,,*7A
$GPGSA,A,3,01,02,03,04,05,06,07,08,09,10,11,12,1.0,1.0,1.0*30
$GPRMC,235259.888,A,4234.226,N,08311.796,W,078.6,088.2,130520,000.0,W*60
$GPGGA,235300.888,4234.227,N,08311.766,W,1,12,1.0,0.0,M,0.0,M,,*79
$GPGSA,A,3,01,02,03,04,05,06,07,08,09,10,11,12,1.0,1.0,1.0*30
$GPRMC,235300.888,A,4234.227,N,08311.766,W,121.4,087.6,130520,000.0,W*67
$GPGGA,235301.888,4234.229,N,08311.721,W,1,12,1.0,0.0,M,0.0,M,,*75
$GPGSA,A,3,01,02,03,04,05,06,07,08,09,10,11,12,1.0,1.0,1.0*30
$GPRMC,235301.888,A,4234.229,N,08311.721,W,102.5,090.0,130520,000.0,W*6B
$GPGGA,235302.888,4234.229,N,08311.682,W,1,12,1.0,0.0,M,0.0,M,,*7E
$GPGSA,A,3,01,02,03,04,05,06,07,08,09,10,11,12,1.0,1.0,1.0*30
$GPRMC,235302.888,A,4234.229,N,08311.682,W,075.6,143.9,130520,000.0,W*64
$GPGGA,235303.888,4234.211,N,08311.668,W,1,12,1.0,0.0,M,0.0,M,,*70
$GPGSA,A,3,01,02,03,04,05,06,07,08,09,10,11,12,1.0,1.0,1.0*30
$GPRMC,235303.888,A,4234.211,N,08311.668,W,100.8,178.7,130520,000.0,W*61
$GPGGA,235304.888,4234.183,N,08311.668,W,1,12,1.0,0.0,M,0.0,M,,*7F
$GPGSA,A,3,01,02,03,04,05,06,07,08,09,10,11,12,1.0,1.0,1.0*30
$GPRMC,235304.888,A,4234.183,N,08311.668,W,085.5,176.9,130520,000.0,W*6F
$GPGGA,235305.888,4234.159,N,08311.667,W,1,12,1.0,0.0,M,0.0,M,,*76
$GPGSA,A,3,01,02,03,04,05,06,07,08,09,10,11,12,1.0,1.0,1.0*30
$GPRMC,235305.888,A,4234.159,N,08311.667,W,073.0,158.4,130520,000.0,W*6B
$GPGGA,235306.888,4234.140,N,08311.659,W,1,12,1.0,0.0,M,0.0,M,,*70
$GPGSA,A,3,01,02,03,04,05,06,07,08,09,10,11,12,1.0,1.0,1.0*30
$GPRMC,235306.888,A,4234.140,N,08311.659,W,090.5,089.2,130520,000.0,W*6E
$GPGGA,235307.888,4234.140,N,08311.625,W,1,12,1.0,0.0,M,0.0,M,,*7A
$GPGSA,A,3,01,02,03,04,05,06,07,08,09,10,11,12,1.0,1.0,1.0*30
$GPRMC,235307.888,A,4234.140,N,08311.625,W,097.6,087.0,130520,000.0,W*6C
$GPGGA,235308.888,4234.142,N,08311.588,W,1,12,1.0,0.0,M,0.0,M,,*73
$GPGSA,A,3,01,02,03,04,05,06,07,08,09,10,11,12,1.0,1.0,1.0*30
$GPRMC,235308.888,A,4234.142,N,08311.588,W,082.0,356.8,130520,000.0,W*60
$GPGGA,235309.888,4234.165,N,08311.589,W,1,12,1.0,0.0,M,0.0,M,,*76
$GPGSA,A,3,01,02,03,04,05,06,07,08,09,10,11,12,1.0,1.0,1.0*30
$GPRMC,235309.888,A,4234.165,N,08311.589,W,082.0,356.8,130520,000.0,W*65
$GPGGA,235310.888,4234.188,N,08311.591,W,1,12,1.0,0.0,M,0.0,M,,*74
$GPGSA,A,3,01,02,03,04,05,06,07,08,09,10,11,12,1.0,1.0,1.0*30
$GPRMC,235310.888,A,4234.188,N,08311.591,W,075.2,001.8,130520,000.0,W*6C
$GPGGA,235311.888,4234.208,N,08311.590,W,1,12,1.0,0.0,M,0.0,M,,*7F
$GPGSA,A,3,01,02,03,04,05,06,07,08,09,10,11,12,1.0,1.0,1.0*30
$GPRMC,235311.888,A,4234.208,N,08311.590,W,071.7,358.2,130520,000.0,W*63
$GPGGA,235312.888,4234.228,N,08311.591,W,1,12,1.0,0.0,M,0.0,M,,*7F
$GPGSA,A,3,01,02,03,04,05,06,07,08,09,10,11,12,1.0,1.0,1.0*30
$GPRMC,235312.888,A,4234.228,N,08311.591,W,068.3,000.0,130520,000.0,W*63
$GPGGA,235313.888,4234.247,N,08311.591,W,1,12,1.0,0.0,M,0.0,M,,*77
$GPGSA,A,3,01,02,03,04,05,06,07,08,09,10,11,12,1.0,1.0,1.0*30
$GPRMC,235313.888,A,4234.247,N,08311.591,W,079.0,351.6,130520,000.0,W*69
$GPGGA,235314.888,4234.269,N,08311.594,W,1,12,1.0,0.0,M,0.0,M,,*79
$GPGSA,A,3,01,02,03,04,05,06,07,08,09,10,11,12,1.0,1.0,1.0*30
$GPRMC,235314.888,A,4234.269,N,08311.594,W,064.3,337.5,130520,000.0,W*6B
$GPGGA,235315.888,4234.286,N,08311.601,W,1,12,1.0,0.0,M,0.0,M,,*76
$GPGSA,A,3,01,02,03,04,05,06,07,08,09,10,11,12,1.0,1.0,1.0*30
$GPRMC,235315.888,A,4234.286,N,08311.601,W,055.3,276.6,130520,000.0,W*61
$GPGGA,235316.888,4234.289,N,08311.621,W,1,12,1.0,0.0,M,0.0,M,,*78
$GPGSA,A,3,01,02,03,04,05,06,07,08,09,10,11,12,1.0,1.0,1.0*30
$GPRMC,235316.888,A,4234.289,N,08311.621,W,065.1,266.7,130520,000.0,W*6E
$GPGGA,235317.888,4234.287,N,08311.646,W,1,12,1.0,0.0,M,0.0,M,,*76
$GPGSA,A,3,01,02,03,04,05,06,07,08,09,10,11,12,1.0,1.0,1.0*30
$GPRMC,235317.888,A,4234.287,N,08311.646,W,051.9,277.0,130520,000.0,W*68
$GPGGA,235318.888,4234.290,N,08311.665,W,1,12,1.0,0.0,M,0.0,M,,*7E
$GPGSA,A,3,01,02,03,04,05,06,07,08,09,10,11,12,1.0,1.0,1.0*30
$GPRMC,235318.888,A,4234.290,N,08311.665,W,077.2,353.1,130520,000.0,W*69
$GPGGA,235319.888,4234.311,N,08311.668,W,1,12,1.0,0.0,M,0.0,M,,*7A
$GPGSA,A,3,01,02,03,04,05,06,07,08,09,10,11,12,1.0,1.0,1.0*30
$GPRMC,235319.888,A,4234.311,N,08311.668,W,080.3,356.7,130520,000.0,W*67
$GPGGA,235320.888,4234.333,N,08311.669,W,1,12,1.0,0.0,M,0.0,M,,*71
$GPGSA,A,3,01,02,03,04,05,06,07,08,09,10,11,12,1.0,1.0,1.0*30
$GPRMC,235320.888,A,4234.333,N,08311.669,W,085.5,356.9,130520,000.0,W*61
$GPGGA,235321.888,4234.357,N,08311.670,W,1,12,1.0,0.0,M,0.0,M,,*7A
$GPGSA,A,3,01,02,03,04,05,06,07,08,09,10,11,12,1.0,1.0,1.0*30
$GPRMC,235321.888,A,4234.357,N,08311.670,W,089.0,355.5,130520,000.0,W*6C
$GPGGA,235322.888,4234.382,N,08311.672,W,1,12,1.0,0.0,M,0.0,M,,*73
$GPGSA,A,3,01,02,03,04,05,06,07,08,09,10,11,12,1.0,1.0,1.0*30
$GPRMC,235322.888,A,4234.382,N,08311.672,W,083.7,358.4,130520,000.0,W*64
$GPGGA,235323.888,4234.405,N,08311.673,W,1,12,1.0,0.0,M,0.0,M,,*7B
$GPGSA,A,3,01,02,03,04,05,06,07,08,09,10,11,12,1.0,1.0,1.0*30
$GPRMC,235323.888,A,4234.405,N,08311.673,W,099.3,354.7,130520,000.0,W*6C
$GPGGA,235324.888,4234.432,N,08311.676,W,1,12,1.0,0.0,M,0.0,M,,*7D
$GPGSA,A,3,01,02,03,04,05,06,07,08,09,10,11,12,1.0,1.0,1.0*30
$GPRMC,235324.888,A,4234.432,N,08311.676,W,102.5,000.0,130520,000.0,W*6A
$GPGGA,235325.888,4234.461,N,08311.676,W,1,12,1.0,0.0,M,0.0,M,,*7A
$GPGSA,A,3,01,02,03,04,05,06,07,08,09,10,11,12,1.0,1.0,1.0*30
$GPRMC,235325.888,A,4234.461,N,08311.676,W,082.6,350.4,130520,000.0,W*65
$GPGGA,235326.888,4234.483,N,08311.679,W,1,12,1.0,0.0,M,0.0,M,,*7A
$GPGSA,A,3,01,02,03,04,05,06,07,08,09,10,11,12,1.0,1.0,1.0*30
$GPRMC,235326.888,A,4234.483,N,08311.679,W,084.0,290.3,130520,000.0,W*6F
$GPGGA,235327.888,4234.494,N,08311.708,W,1,12,1.0,0.0,M,0.0,M,,*7A
$GPGSA,A,3,01,02,03,04,05,06,07,08,09,10,11,12,1.0,1.0,1.0*30
$GPRMC,235327.888,A,4234.494,N,08311.708,W,107.0,276.1,130520,000.0,W*6F
$GPGGA,235328.888,4234.498,N,08311.748,W,1,12,1.0,0.0,M,0.0,M,,*7D
$GPGSA,A,3,01,02,03,04,05,06,07,08,09,10,11,12,1.0,1.0,1.0*30
$GPRMC,235328.888,A,4234.498,N,08311.748,W,087.4,273.3,130520,000.0,W*62
$GPGGA,235329.888,4234.500,N,08311.780,W,1,12,1.0,0.0,M,0.0,M,,*78
$GPGSA,A,3,01,02,03,04,05,06,07,08,09,10,11,12,1.0,1.0,1.0*30
$GPRMC,235329.888,A,4234.500,N,08311.780,W,076.8,270.0,130520,000.0,W*65
$GPGGA,235330.888,4234.500,N,08311.809,W,1,12,1.0,0.0,M,0.0,M,,*7E
$GPGSA,A,3,01,02,03,04,05,06,07,08,09,10,11,12,1.0,1.0,1.0*30
$GPRMC,235330.888,A,4234.500,N,08311.809,W,058.2,267.5,130520,000.0,W*66
$GPGGA,235331.888,4234.499,N,08311.831,W,1,12,1.0,0.0,M,0.0,M,,*75
$GPGSA,A,3,01,02,03,04,05,06,07,08,09,10,11,12,1.0,1.0,1.0*30
$GPRMC,235331.888,A,4234.499,N,08311.831,W,058.2,267.5,130520,000.0,W*6D
