$GPGGA,151451.851,4234.500,N,08311.835,W,1,12,1.0,0.0,M,0.0,M,,*74
$GPGSA,A,3,01,02,03,04,05,06,07,08,09,10,11,12,1.0,1.0,1.0*30
$GPRMC,151451.851,A,4234.500,N,08311.835,W,007.5,246.1,120520,000.0,W*67
$GPGGA,151452.851,4234.498,N,08311.837,W,1,12,1.0,0.0,M,0.0,M,,*75
$GPGSA,A,3,01,02,03,04,05,06,07,08,09,10,11,12,1.0,1.0,1.0*30
$GPRMC,151452.851,A,4234.498,N,08311.837,W,009.0,172.7,120520,000.0,W*6F
$GPGGA,151453.851,4234.496,N,08311.837,W,1,12,1.0,0.0,M,0.0,M,,*7A
$GPGSA,A,3,01,02,03,04,05,06,07,08,09,10,11,12,1.0,1.0,1.0*30
$GPRMC,151453.851,A,4234.496,N,08311.837,W,012.4,182.7,120520,000.0,W*61
$GPGGA,151454.851,4234.493,N,08311.837,W,1,12,1.0,0.0,M,0.0,M,,*78
$GPGSA,A,3,01,02,03,04,05,06,07,08,09,10,11,12,1.0,1.0,1.0*30
$GPRMC,151454.851,A,4234.493,N,08311.837,W,015.8,175.8,120520,000.0,W*6F
$GPGGA,151455.851,4234.488,N,08311.836,W,1,12,1.0,0.0,M,0.0,M,,*72
$GPGSA,A,3,01,02,03,04,05,06,07,08,09,10,11,12,1.0,1.0,1.0*30
$GPRMC,151455.851,A,4234.488,N,08311.836,W,014.4,164.0,120520,000.0,W*60
$GPGGA,151456.851,4234.484,N,08311.835,W,1,12,1.0,0.0,M,0.0,M,,*7E
$GPGSA,A,3,01,02,03,04,05,06,07,08,09,10,11,12,1.0,1.0,1.0*30
$GPRMC,151456.851,A,4234.484,N,08311.835,W,012.2,142.8,120520,000.0,W*60
$GPGGA,151457.851,4234.481,N,08311.833,W,1,12,1.0,0.0,M,0.0,M,,*7C
$GPGSA,A,3,01,02,03,04,05,06,07,08,09,10,11,12,1.0,1.0,1.0*30
$GPRMC,151457.851,A,4234.481,N,08311.833,W,015.0,153.8,120520,000.0,W*67
$GPGGA,151458.851,4234.477,N,08311.831,W,1,12,1.0,0.0,M,0.0,M,,*78
$GPGSA,A,3,01,02,03,04,05,06,07,08,09,10,11,12,1.0,1.0,1.0*30
$GPRMC,151458.851,A,4234.477,N,08311.831,W,013.7,146.8,120520,000.0,W*66
$GPGGA,151459.851,4234.474,N,08311.829,W,1,12,1.0,0.0,M,0.0,M,,*73
$GPGSA,A,3,01,02,03,04,05,06,07,08,09,10,11,12,1.0,1.0,1.0*30
$GPRMC,151459.851,A,4234.474,N,08311.829,W,013.0,140.2,120520,000.0,W*66
$GPGGA,151500.851,4234.471,N,08311.826,W,1,12,1.0,0.0,M,0.0,M,,*74
$GPGSA,A,3,01,02,03,04,05,06,07,08,09,10,11,12,1.0,1.0,1.0*30
$GPRMC,151500.851,A,4234.471,N,08311.826,W,016.7,139.2,120520,000.0,W*6D
$GPGGA,151501.851,4234.467,N,08311.823,W,1,12,1.0,0.0,M,0.0,M,,*77
$GPGSA,A,3,01,02,03,04,05,06,07,08,09,10,11,12,1.0,1.0,1.0*30
$GPRMC,151501.851,A,4234.467,N,08311.823,W,015.5,144.3,120520,000.0,W*64
$GPGGA,151502.851,4234.463,N,08311.820,W,1,12,1.0,0.0,M,0.0,M,,*73
$GPGSA,A,3,01,02,03,04,05,06,07,08,09,10,11,12,1.0,1.0,1.0*30
$GPRMC,151502.851,A,4234.463,N,08311.820,W,015.8,161.3,120520,000.0,W*6A
$GPGGA,151503.851,4234.459,N,08311.819,W,1,12,1.0,0.0,M,0.0,M,,*71
$GPGSA,A,3,01,02,03,04,05,06,07,08,09,10,11,12,1.0,1.0,1.0*30
$GPRMC,151503.851,A,4234.459,N,08311.819,W,015.9,169.6,120520,000.0,W*64
$GPGGA,151504.851,4234.455,N,08311.818,W,1,12,1.0,0.0,M,0.0,M,,*7B
$GPGSA,A,3,01,02,03,04,05,06,07,08,09,10,11,12,1.0,1.0,1.0*30
$GPRMC,151504.851,A,4234.455,N,08311.818,W,017.2,170.4,120520,000.0,W*6D
$GPGGA,151505.851,4234.450,N,08311.817,W,1,12,1.0,0.0,M,0.0,M,,*70
$GPGSA,A,3,01,02,03,04,05,06,07,08,09,10,11,12,1.0,1.0,1.0*30
$GPRMC,151505.851,A,4234.450,N,08311.817,W,015.9,171.7,120520,000.0,W*6D
$GPGGA,151506.851,4234.445,N,08311.816,W,1,12,1.0,0.0,M,0.0,M,,*76
$GPGSA,A,3,01,02,03,04,05,06,07,08,09,10,11,12,1.0,1.0,1.0*30
$GPRMC,151506.851,A,4234.445,N,08311.816,W,016.2,175.9,120520,000.0,W*69
$GPGGA,151507.851,4234.441,N,08311.816,W,1,12,1.0,0.0,M,0.0,M,,*73
$GPGSA,A,3,01,02,03,04,05,06,07,08,09,10,11,12,1.0,1.0,1.0*30
$GPRMC,151507.851,A,4234.441,N,08311.816,W,011.5,178.6,120520,000.0,W*6E
$GPGGA,151508.851,4234.438,N,08311.816,W,1,12,1.0,0.0,M,0.0,M,,*72
$GPGSA,A,3,01,02,03,04,05,06,07,08,09,10,11,12,1.0,1.0,1.0*30
$GPRMC,151508.851,A,4234.438,N,08311.816,W,013.0,178.7,120520,000.0,W*69
$GPGGA,151509.851,4234.434,N,08311.816,W,1,12,1.0,0.0,M,0.0,M,,*7F
$GPGSA,A,3,01,02,03,04,05,06,07,08,09,10,11,12,1.0,1.0,1.0*30
$GPRMC,151509.851,A,4234.434,N,08311.816,W,012.0,177.2,120520,000.0,W*6F
$GPGGA,151510.851,4234.431,N,08311.816,W,1,12,1.0,0.0,M,0.0,M,,*72
$GPGSA,A,3,01,02,03,04,05,06,07,08,09,10,11,12,1.0,1.0,1.0*30
$GPRMC,151510.851,A,4234.431,N,08311.816,W,007.0,177.7,120520,000.0,W*63
$GPGGA,151511.851,4234.429,N,08311.816,W,1,12,1.0,0.0,M,0.0,M,,*7A
$GPGSA,A,3,01,02,03,04,05,06,07,08,09,10,11,12,1.0,1.0,1.0*30
$GPRMC,151511.851,A,4234.429,N,08311.816,W,008.1,178.0,120520,000.0,W*6D
$GPGGA,151512.851,4234.427,N,08311.816,W,1,12,1.0,0.0,M,0.0,M,,*77
$GPGSA,A,3,01,02,03,04,05,06,07,08,09,10,11,12,1.0,1.0,1.0*30
$GPRMC,151512.851,A,4234.427,N,08311.816,W,009.0,183.7,120520,000.0,W*63
$GPGGA,151513.851,4234.424,N,08311.816,W,1,12,1.0,0.0,M,0.0,M,,*75
$GPGSA,A,3,01,02,03,04,05,06,07,08,09,10,11,12,1.0,1.0,1.0*30
$GPRMC,151513.851,A,4234.424,N,08311.816,W,012.4,177.3,120520,000.0,W*60
$GPGGA,151514.851,4234.421,N,08311.816,W,1,12,1.0,0.0,M,0.0,M,,*77
$GPGSA,A,3,01,02,03,04,05,06,07,08,09,10,11,12,1.0,1.0,1.0*30
$GPRMC,151514.851,A,4234.421,N,08311.816,W,014.1,180.0,120520,000.0,W*6A
$GPGGA,151515.851,4234.417,N,08311.816,W,1,12,1.0,0.0,M,0.0,M,,*73
$GPGSA,A,3,01,02,03,04,05,06,07,08,09,10,11,12,1.0,1.0,1.0*30
$GPRMC,151515.851,A,4234.417,N,08311.816,W,017.5,178.1,120520,000.0,W*6F
$GPGGA,151516.851,4234.412,N,08311.816,W,1,12,1.0,0.0,M,0.0,M,,*75
$GPGSA,A,3,01,02,03,04,05,06,07,08,09,10,11,12,1.0,1.0,1.0*30
$GPRMC,151516.851,A,4234.412,N,08311.816,W,017.5,180.0,120520,000.0,W*6F
$GPGGA,151517.851,4234.407,N,08311.816,W,1,12,1.0,0.0,M,0.0,M,,*70
$GPGSA,A,3,01,02,03,04,05,06,07,08,09,10,11,12,1.0,1.0,1.0*30
$GPRMC,151517.851,A,4234.407,N,08311.816,W,015.0,175.6,120520,000.0,W*61
$GPGGA,151518.851,4234.403,N,08311.815,W,1,12,1.0,0.0,M,0.0,M,,*78
$GPGSA,A,3,01,02,03,04,05,06,07,08,09,10,11,12,1.0,1.0,1.0*30
$GPRMC,151518.851,A,4234.403,N,08311.815,W,017.5,176.2,120520,000.0,W*69
$GPGGA,151519.851,4234.398,N,08311.815,W,1,12,1.0,0.0,M,0.0,M,,*7C
$GPGSA,A,3,01,02,03,04,05,06,07,08,09,10,11,12,1.0,1.0,1.0*30
$GPRMC,151519.851,A,4234.398,N,08311.815,W,015.8,177.9,120520,000.0,W*68
$GPGGA,151520.851,4234.394,N,08311.815,W,1,12,1.0,0.0,M,0.0,M,,*7A
$GPGSA,A,3,01,02,03,04,05,06,07,08,09,10,11,12,1.0,1.0,1.0*30
$GPRMC,151520.851,A,4234.394,N,08311.815,W,017.1,176.1,120520,000.0,W*6C
$GPGGA,151521.851,4234.389,N,08311.814,W,1,12,1.0,0.0,M,0.0,M,,*76
$GPGSA,A,3,01,02,03,04,05,06,07,08,09,10,11,12,1.0,1.0,1.0*30
$GPRMC,151521.851,A,4234.389,N,08311.814,W,014.9,177.8,120520,000.0,W*63
$GPGGA,151522.851,4234.385,N,08311.814,W,1,12,1.0,0.0,M,0.0,M,,*79
$GPGSA,A,3,01,02,03,04,05,06,07,08,09,10,11,12,1.0,1.0,1.0*30
$GPRMC,151522.851,A,4234.385,N,08311.814,W,007.4,177.8,120520,000.0,W*63
$GPGGA,151523.851,4234.383,N,08311.814,W,1,12,1.0,0.0,M,0.0,M,,*7E
$GPGSA,A,3,01,02,03,04,05,06,07,08,09,10,11,12,1.0,1.0,1.0*30
$GPRMC,151523.851,A,4234.383,N,08311.814,W,008.0,177.9,120520,000.0,W*6E
$GPGGA,151524.851,4234.380,N,08311.814,W,1,12,1.0,0.0,M,0.0,M,,*7A
$GPGSA,A,3,01,02,03,04,05,06,07,08,09,10,11,12,1.0,1.0,1.0*30
$GPRMC,151524.851,A,4234.380,N,08311.814,W,009.5,175.6,120520,000.0,W*63
$GPGGA,151525.851,4234.378,N,08311.814,W,1,12,1.0,0.0,M,0.0,M,,*7C
$GPGSA,A,3,01,02,03,04,05,06,07,08,09,10,11,12,1.0,1.0,1.0*30
$GPRMC,151525.851,A,4234.378,N,08311.814,W,009.4,175.6,120520,000.0,W*64
$GPGGA,151526.851,4234.375,N,08311.814,W,1,12,1.0,0.0,M,0.0,M,,*72
$GPGSA,A,3,01,02,03,04,05,06,07,08,09,10,11,12,1.0,1.0,1.0*30
$GPRMC,151526.851,A,4234.375,N,08311.814,W,008.3,179.0,120520,000.0,W*66
$GPGGA,151527.851,4234.373,N,08311.814,W,1,12,1.0,0.0,M,0.0,M,,*75
$GPGSA,A,3,01,02,03,04,05,06,07,08,09,10,11,12,1.0,1.0,1.0*30
$GPRMC,151527.851,A,4234.373,N,08311.814,W,007.8,177.9,120520,000.0,W*62
$GPGGA,151528.851,4234.371,N,08311.814,W,1,12,1.0,0.0,M,0.0,M,,*78
$GPGSA,A,3,01,02,03,04,05,06,07,08,09,10,11,12,1.0,1.0,1.0*30
$GPRMC,151528.851,A,4234.371,N,08311.814,W,008.0,177.9,120520,000.0,W*68
$GPGGA,151529.851,4234.369,N,08311.813,W,1,12,1.0,0.0,M,0.0,M,,*77
$GPGSA,A,3,01,02,03,04,05,06,07,08,09,10,11,12,1.0,1.0,1.0*30
$GPRMC,151529.851,A,4234.369,N,08311.813,W,008.0,173.8,120520,000.0,W*62
$GPGGA,151530.851,4234.366,N,08311.813,W,1,12,1.0,0.0,M,0.0,M,,*70
$GPGSA,A,3,01,02,03,04,05,06,07,08,09,10,11,12,1.0,1.0,1.0*30
$GPRMC,151530.851,A,4234.366,N,08311.813,W,008.9,176.3,120520,000.0,W*62
$GPGGA,151531.851,4234.364,N,08311.813,W,1,12,1.0,0.0,M,0.0,M,,*73
$GPGSA,A,3,01,02,03,04,05,06,07,08,09,10,11,12,1.0,1.0,1.0*30
$GPRMC,151531.851,A,4234.364,N,08311.813,W,008.6,175.2,120520,000.0,W*6C
$GPGGA,151532.851,4234.361,N,08311.813,W,1,12,1.0,0.0,M,0.0,M,,*75
$GPGSA,A,3,01,02,03,04,05,06,07,08,09,10,11,12,1.0,1.0,1.0*30
$GPRMC,151532.851,A,4234.361,N,08311.813,W,010.8,176.2,120520,000.0,W*6E
$GPGGA,151533.851,4234.358,N,08311.813,W,1,12,1.0,0.0,M,0.0,M,,*7E
$GPGSA,A,3,01,02,03,04,05,06,07,08,09,10,11,12,1.0,1.0,1.0*30
$GPRMC,151533.851,A,4234.358,N,08311.813,W,009.1,174.5,120520,000.0,W*61
$GPGGA,151534.851,4234.356,N,08311.812,W,1,12,1.0,0.0,M,0.0,M,,*76
$GPGSA,A,3,01,02,03,04,05,06,07,08,09,10,11,12,1.0,1.0,1.0*30
$GPRMC,151534.851,A,4234.356,N,08311.812,W,008.1,174.9,120520,000.0,W*64
$GPGGA,151535.851,4234.354,N,08311.812,W,1,12,1.0,0.0,M,0.0,M,,*75
$GPGSA,A,3,01,02,03,04,05,06,07,08,09,10,11,12,1.0,1.0,1.0*30
$GPRMC,151535.851,A,4234.354,N,08311.812,W,009.3,176.4,120520,000.0,W*6B
$GPGGA,151536.851,4234.351,N,08311.812,W,1,12,1.0,0.0,M,0.0,M,,*73
$GPGSA,A,3,01,02,03,04,05,06,07,08,09,10,11,12,1.0,1.0,1.0*30
$GPRMC,151536.851,A,4234.351,N,08311.812,W,009.2,178.2,120520,000.0,W*64
$GPGGA,151537.851,4234.349,N,08311.812,W,1,12,1.0,0.0,M,0.0,M,,*7B
$GPGSA,A,3,01,02,03,04,05,06,07,08,09,10,11,12,1.0,1.0,1.0*30
$GPRMC,151537.851,A,4234.349,N,08311.812,W,010.7,177.7,120520,000.0,W*6B
$GPGGA,151538.851,4234.346,N,08311.812,W,1,12,1.0,0.0,M,0.0,M,,*7B
$GPGSA,A,3,01,02,03,04,05,06,07,08,09,10,11,12,1.0,1.0,1.0*30
$GPRMC,151538.851,A,4234.346,N,08311.812,W,008.9,178.1,120520,000.0,W*65
$GPGGA,151539.851,4234.343,N,08311.812,W,1,12,1.0,0.0,M,0.0,M,,*7F
$GPGSA,A,3,01,02,03,04,05,06,07,08,09,10,11,12,1.0,1.0,1.0*30
$GPRMC,151539.851,A,4234.343,N,08311.812,W,010.3,176.0,120520,000.0,W*6D
$GPGGA,151540.851,4234.340,N,08311.812,W,1,12,1.0,0.0,M,0.0,M,,*72
$GPGSA,A,3,01,02,03,04,05,06,07,08,09,10,11,12,1.0,1.0,1.0*30
$GPRMC,151540.851,A,4234.340,N,08311.812,W,009.6,177.4,120520,000.0,W*68
$GPGGA,151541.851,4234.338,N,08311.811,W,1,12,1.0,0.0,M,0.0,M,,*7F
$GPGSA,A,3,01,02,03,04,05,06,07,08,09,10,11,12,1.0,1.0,1.0*30
$GPRMC,151541.851,A,4234.338,N,08311.811,W,010.6,178.4,120520,000.0,W*62
$GPGGA,151542.851,4234.335,N,08311.811,W,1,12,1.0,0.0,M,0.0,M,,*71
$GPGSA,A,3,01,02,03,04,05,06,07,08,09,10,11,12,1.0,1.0,1.0*30
$GPRMC,151542.851,A,4234.335,N,08311.811,W,011.3,176.3,120520,000.0,W*61
$GPGGA,151543.851,4234.332,N,08311.811,W,1,12,1.0,0.0,M,0.0,M,,*77
$GPGSA,A,3,01,02,03,04,05,06,07,08,09,10,11,12,1.0,1.0,1.0*30
$GPRMC,151543.851,A,4234.332,N,08311.811,W,011.9,175.8,120520,000.0,W*65
$GPGGA,151544.851,4234.328,N,08311.811,W,1,12,1.0,0.0,M,0.0,M,,*7B
$GPGSA,A,3,01,02,03,04,05,06,07,08,09,10,11,12,1.0,1.0,1.0*30
$GPRMC,151544.851,A,4234.328,N,08311.811,W,010.4,177.6,120520,000.0,W*69
$GPGGA,151545.851,4234.325,N,08311.811,W,1,12,1.0,0.0,M,0.0,M,,*77
$GPGSA,A,3,01,02,03,04,05,06,07,08,09,10,11,12,1.0,1.0,1.0*30
$GPRMC,151545.851,A,4234.325,N,08311.811,W,010.5,176.0,120520,000.0,W*63
$GPGGA,151546.851,4234.322,N,08311.811,W,1,12,1.0,0.0,M,0.0,M,,*73
$GPGSA,A,3,01,02,03,04,05,06,07,08,09,10,11,12,1.0,1.0,1.0*30
$GPRMC,151546.851,A,4234.322,N,08311.811,W,010.5,177.6,120520,000.0,W*60
$GPGGA,151547.851,4234.320,N,08311.811,W,1,12,1.0,0.0,M,0.0,M,,*70
$GPGSA,A,3,01,02,03,04,05,06,07,08,09,10,11,12,1.0,1.0,1.0*30
$GPRMC,151547.851,A,4234.320,N,08311.811,W,011.5,177.8,120520,000.0,W*6C
$GPGGA,151548.851,4234.316,N,08311.810,W,1,12,1.0,0.0,M,0.0,M,,*7B
$GPGSA,A,3,01,02,03,04,05,06,07,08,09,10,11,12,1.0,1.0,1.0*30
$GPRMC,151548.851,A,4234.316,N,08311.810,W,009.5,177.4,120520,000.0,W*62
$GPGGA,151549.851,4234.314,N,08311.810,W,1,12,1.0,0.0,M,0.0,M,,*78
$GPGSA,A,3,01,02,03,04,05,06,07,08,09,10,11,12,1.0,1.0,1.0*30
$GPRMC,151549.851,A,4234.314,N,08311.810,W,008.7,177.1,120520,000.0,W*67
$GPGGA,151550.851,4234.311,N,08311.810,W,1,12,1.0,0.0,M,0.0,M,,*75
$GPGSA,A,3,01,02,03,04,05,06,07,08,09,10,11,12,1.0,1.0,1.0*30
$GPRMC,151550.851,A,4234.311,N,08311.810,W,010.5,176.8,120520,000.0,W*69
$GPGGA,151551.851,4234.308,N,08311.810,W,1,12,1.0,0.0,M,0.0,M,,*7C
$GPGSA,A,3,01,02,03,04,05,06,07,08,09,10,11,12,1.0,1.0,1.0*30
$GPRMC,151551.851,A,4234.308,N,08311.810,W,011.5,175.7,120520,000.0,W*6D
$GPGGA,151552.851,4234.305,N,08311.810,W,1,12,1.0,0.0,M,0.0,M,,*72
$GPGSA,A,3,01,02,03,04,05,06,07,08,09,10,11,12,1.0,1.0,1.0*30
$GPRMC,151552.851,A,4234.305,N,08311.810,W,014.5,182.3,120520,000.0,W*6A
$GPGGA,151553.851,4234.301,N,08311.810,W,1,12,1.0,0.0,M,0.0,M,,*77
$GPGSA,A,3,01,02,03,04,05,06,07,08,09,10,11,12,1.0,1.0,1.0*30
$GPRMC,151553.851,A,4234.301,N,08311.810,W,016.0,187.8,120520,000.0,W*66
$GPGGA,151554.851,4234.297,N,08311.811,W,1,12,1.0,0.0,M,0.0,M,,*7F
$GPGSA,A,3,01,02,03,04,05,06,07,08,09,10,11,12,1.0,1.0,1.0*30
$GPRMC,151554.851,A,4234.297,N,08311.811,W,012.3,182.0,120520,000.0,W*64
$GPGGA,151555.851,4234.293,N,08311.811,W,1,12,1.0,0.0,M,0.0,M,,*7A
$GPGSA,A,3,01,02,03,04,05,06,07,08,09,10,11,12,1.0,1.0,1.0*30
$GPRMC,151555.851,A,4234.293,N,08311.811,W,014.8,194.0,120520,000.0,W*6B
$GPGGA,151556.851,4234.289,N,08311.812,W,1,12,1.0,0.0,M,0.0,M,,*71
$GPGSA,A,3,01,02,03,04,05,06,07,08,09,10,11,12,1.0,1.0,1.0*30
$GPRMC,151556.851,A,4234.289,N,08311.812,W,011.6,204.1,120520,000.0,W*60
$GPGGA,151557.851,4234.286,N,08311.813,W,1,12,1.0,0.0,M,0.0,M,,*7E
$GPGSA,A,3,01,02,03,04,05,06,07,08,09,10,11,12,1.0,1.0,1.0*30
$GPRMC,151557.851,A,4234.286,N,08311.813,W,011.5,200.7,120520,000.0,W*6E
$GPGGA,151558.851,4234.283,N,08311.814,W,1,12,1.0,0.0,M,0.0,M,,*73
$GPGSA,A,3,01,02,03,04,05,06,07,08,09,10,11,12,1.0,1.0,1.0*30
$GPRMC,151558.851,A,4234.283,N,08311.814,W,008.5,200.3,120520,000.0,W*6F
$GPGGA,151559.851,4234.281,N,08311.815,W,1,12,1.0,0.0,M,0.0,M,,*71
$GPGSA,A,3,01,02,03,04,05,06,07,08,09,10,11,12,1.0,1.0,1.0*30
$GPRMC,151559.851,A,4234.281,N,08311.815,W,011.3,203.2,120520,000.0,W*61
$GPGGA,151600.851,4234.278,N,08311.816,W,1,12,1.0,0.0,M,0.0,M,,*7B
$GPGSA,A,3,01,02,03,04,05,06,07,08,09,10,11,12,1.0,1.0,1.0*30
$GPRMC,151600.851,A,4234.278,N,08311.816,W,008.6,200.0,120520,000.0,W*67
$GPGGA,151601.851,4234.276,N,08311.817,W,1,12,1.0,0.0,M,0.0,M,,*75
$GPGSA,A,3,01,02,03,04,05,06,07,08,09,10,11,12,1.0,1.0,1.0*30
$GPRMC,151601.851,A,4234.276,N,08311.817,W,015.7,205.1,120520,000.0,W*60
$GPGGA,151602.851,4234.272,N,08311.819,W,1,12,1.0,0.0,M,0.0,M,,*7C
$GPGSA,A,3,01,02,03,04,05,06,07,08,09,10,11,12,1.0,1.0,1.0*30
$GPRMC,151602.851,A,4234.272,N,08311.819,W,017.8,202.1,120520,000.0,W*63
$GPGGA,151603.851,4234.267,N,08311.821,W,1,12,1.0,0.0,M,0.0,M,,*72
$GPGSA,A,3,01,02,03,04,05,06,07,08,09,10,11,12,1.0,1.0,1.0*30
$GPRMC,151603.851,A,4234.267,N,08311.821,W,017.9,180.0,120520,000.0,W*64
$GPGGA,151604.851,4234.262,N,08311.821,W,1,12,1.0,0.0,M,0.0,M,,*70
$GPGSA,A,3,01,02,03,04,05,06,07,08,09,10,11,12,1.0,1.0,1.0*30
$GPRMC,151604.851,A,4234.262,N,08311.821,W,019.0,190.5,120520,000.0,W*65
$GPGGA,151605.851,4234.257,N,08311.822,W,1,12,1.0,0.0,M,0.0,M,,*74
$GPGSA,A,3,01,02,03,04,05,06,07,08,09,10,11,12,1.0,1.0,1.0*30
$GPRMC,151605.851,A,4234.257,N,08311.822,W,019.6,180.0,120520,000.0,W*63
$GPGGA,151606.851,4234.251,N,08311.822,W,1,12,1.0,0.0,M,0.0,M,,*71
$GPGSA,A,3,01,02,03,04,05,06,07,08,09,10,11,12,1.0,1.0,1.0*30
$GPRMC,151606.851,A,4234.251,N,08311.822,W,018.8,180.0,120520,000.0,W*69
$GPGGA,151607.851,4234.246,N,08311.822,W,1,12,1.0,0.0,M,0.0,M,,*76
$GPGSA,A,3,01,02,03,04,05,06,07,08,09,10,11,12,1.0,1.0,1.0*30
$GPRMC,151607.851,A,4234.246,N,08311.822,W,023.1,177.1,120520,000.0,W*66
$GPGGA,151608.851,4234.240,N,08311.822,W,1,12,1.0,0.0,M,0.0,M,,*7F
$GPGSA,A,3,01,02,03,04,05,06,07,08,09,10,11,12,1.0,1.0,1.0*30
$GPRMC,151608.851,A,4234.240,N,08311.822,W,019.6,180.0,120520,000.0,W*68
$GPGGA,151609.851,4234.234,N,08311.822,W,1,12,1.0,0.0,M,0.0,M,,*7D
$GPGSA,A,3,01,02,03,04,05,06,07,08,09,10,11,12,1.0,1.0,1.0*30
$GPRMC,151609.851,A,4234.234,N,08311.822,W,017.9,180.0,120520,000.0,W*6B
$GPGGA,151610.851,4234.229,N,08311.822,W,1,12,1.0,0.0,M,0.0,M,,*79
$GPGSA,A,3,01,02,03,04,05,06,07,08,09,10,11,12,1.0,1.0,1.0*30
$GPRMC,151610.851,A,4234.229,N,08311.822,W,015.4,180.0,120520,000.0,W*60
$GPGGA,151611.851,4234.225,N,08311.822,W,1,12,1.0,0.0,M,0.0,M,,*74
$GPGSA,A,3,01,02,03,04,05,06,07,08,09,10,11,12,1.0,1.0,1.0*30
$GPRMC,151611.851,A,4234.225,N,08311.822,W,020.5,091.8,120520,000.0,W*63
$GPGGA,151612.851,4234.225,N,08311.814,W,1,12,1.0,0.0,M,0.0,M,,*72
$GPGSA,A,3,01,02,03,04,05,06,07,08,09,10,11,12,1.0,1.0,1.0*30
$GPRMC,151612.851,A,4234.225,N,08311.814,W,011.1,090.0,120520,000.0,W*6A
$GPGGA,151613.851,4234.225,N,08311.810,W,1,12,1.0,0.0,M,0.0,M,,*77
$GPGSA,A,3,01,02,03,04,05,06,07,08,09,10,11,12,1.0,1.0,1.0*30
$GPRMC,151613.851,A,4234.225,N,08311.810,W,011.1,090.0,120520,000.0,W*6F
$GPGGA,151614.851,4234.225,N,08311.806,W,1,12,1.0,0.0,M,0.0,M,,*77
$GPGSA,A,3,01,02,03,04,05,06,07,08,09,10,11,12,1.0,1.0,1.0*30
$GPRMC,151614.851,A,4234.225,N,08311.806,W,009.4,090.0,120520,000.0,W*63
$GPGGA,151615.851,4234.225,N,08311.802,W,1,12,1.0,0.0,M,0.0,M,,*72
$GPGSA,A,3,01,02,03,04,05,06,07,08,09,10,11,12,1.0,1.0,1.0*30
$GPRMC,151615.851,A,4234.225,N,08311.802,W,013.7,087.4,120520,000.0,W*6C
$GPGGA,151616.851,4234.225,N,08311.797,W,1,12,1.0,0.0,M,0.0,M,,*72
$GPGSA,A,3,01,02,03,04,05,06,07,08,09,10,11,12,1.0,1.0,1.0*30
$GPRMC,151616.851,A,4234.225,N,08311.797,W,015.6,083.0,120520,000.0,W*6B
$GPGGA,151617.851,4234.226,N,08311.791,W,1,12,1.0,0.0,M,0.0,M,,*76
$GPGSA,A,3,01,02,03,04,05,06,07,08,09,10,11,12,1.0,1.0,1.0*30
$GPRMC,151617.851,A,4234.226,N,08311.791,W,019.6,090.0,120520,000.0,W*61
$GPGGA,151618.851,4234.226,N,08311.784,W,1,12,1.0,0.0,M,0.0,M,,*7D
$GPGSA,A,3,01,02,03,04,05,06,07,08,09,10,11,12,1.0,1.0,1.0*30
$GPRMC,151618.851,A,4234.226,N,08311.784,W,016.2,090.0,120520,000.0,W*61
$GPGGA,151619.851,4234.226,N,08311.778,W,1,12,1.0,0.0,M,0.0,M,,*7F
$GPGSA,A,3,01,02,03,04,05,06,07,08,09,10,11,12,1.0,1.0,1.0*30
$GPRMC,151619.851,A,4234.226,N,08311.778,W,017.2,085.8,120520,000.0,W*6E
$GPGGA,151620.851,4234.226,N,08311.771,W,1,12,1.0,0.0,M,0.0,M,,*7C
$GPGSA,A,3,01,02,03,04,05,06,07,08,09,10,11,12,1.0,1.0,1.0*30
$GPRMC,151620.851,A,4234.226,N,08311.771,W,020.5,090.0,120520,000.0,W*62
$GPGGA,151621.851,4234.226,N,08311.763,W,1,12,1.0,0.0,M,0.0,M,,*7E
$GPGSA,A,3,01,02,03,04,05,06,07,08,09,10,11,12,1.0,1.0,1.0*30
$GPRMC,151621.851,A,4234.226,N,08311.763,W,021.4,086.6,120520,000.0,W*61
$GPGGA,151622.851,4234.226,N,08311.755,W,1,12,1.0,0.0,M,0.0,M,,*78
$GPGSA,A,3,01,02,03,04,05,06,07,08,09,10,11,12,1.0,1.0,1.0*30
$GPRMC,151622.851,A,4234.226,N,08311.755,W,014.5,087.5,120520,000.0,W*62
$GPGGA,151623.851,4234.227,N,08311.750,W,1,12,1.0,0.0,M,0.0,M,,*7D
$GPGSA,A,3,01,02,03,04,05,06,07,08,09,10,11,12,1.0,1.0,1.0*30
$GPRMC,151623.851,A,4234.227,N,08311.750,W,015.4,090.0,120520,000.0,W*64
$GPGGA,151624.851,4234.227,N,08311.744,W,1,12,1.0,0.0,M,0.0,M,,*7F
$GPGSA,A,3,01,02,03,04,05,06,07,08,09,10,11,12,1.0,1.0,1.0*30
$GPRMC,151624.851,A,4234.227,N,08311.744,W,015.4,087.7,120520,000.0,W*67
$GPGGA,151625.851,4234.227,N,08311.738,W,1,12,1.0,0.0,M,0.0,M,,*75
$GPGSA,A,3,01,02,03,04,05,06,07,08,09,10,11,12,1.0,1.0,1.0*30
$GPRMC,151625.851,A,4234.227,N,08311.738,W,014.5,087.5,120520,000.0,W*6F
$GPGGA,151626.851,4234.227,N,08311.733,W,1,12,1.0,0.0,M,0.0,M,,*7D
$GPGSA,A,3,01,02,03,04,05,06,07,08,09,10,11,12,1.0,1.0,1.0*30
$GPRMC,151626.851,A,4234.227,N,08311.733,W,025.7,085.8,120520,000.0,W*68
$GPGGA,151627.851,4234.228,N,08311.723,W,1,12,1.0,0.0,M,0.0,M,,*72
$GPGSA,A,3,01,02,03,04,05,06,07,08,09,10,11,12,1.0,1.0,1.0*30
$GPRMC,151627.851,A,4234.228,N,08311.723,W,014.5,090.0,120520,000.0,W*6B
$GPGGA,151628.851,4234.228,N,08311.718,W,1,12,1.0,0.0,M,0.0,M,,*75
$GPGSA,A,3,01,02,03,04,05,06,07,08,09,10,11,12,1.0,1.0,1.0*30
$GPRMC,151628.851,A,4234.228,N,08311.718,W,019.0,084.2,120520,000.0,W*63
$GPGGA,151629.851,4234.229,N,08311.711,W,1,12,1.0,0.0,M,0.0,M,,*7C
$GPGSA,A,3,01,02,03,04,05,06,07,08,09,10,11,12,1.0,1.0,1.0*30
$GPRMC,151629.851,A,4234.229,N,08311.711,W,007.7,090.0,120520,000.0,W*65
$GPGGA,151630.851,4234.229,N,08311.708,W,1,12,1.0,0.0,M,0.0,M,,*7C
$GPGSA,A,3,01,02,03,04,05,06,07,08,09,10,11,12,1.0,1.0,1.0*30
$GPRMC,151630.851,A,4234.229,N,08311.708,W,014.5,092.5,120520,000.0,W*62
$GPGGA,151631.851,4234.228,N,08311.702,W,1,12,1.0,0.0,M,0.0,M,,*76
$GPGSA,A,3,01,02,03,04,05,06,07,08,09,10,11,12,1.0,1.0,1.0*30
$GPRMC,151631.851,A,4234.228,N,08311.702,W,016.3,085.6,120520,000.0,W*69
$GPGGA,151632.851,4234.229,N,08311.696,W,1,12,1.0,0.0,M,0.0,M,,*78
$GPGSA,A,3,01,02,03,04,05,06,07,08,09,10,11,12,1.0,1.0,1.0*30
$GPRMC,151632.851,A,4234.229,N,08311.696,W,018.8,090.0,120520,000.0,W*60
$GPGGA,151633.851,4234.229,N,08311.689,W,1,12,1.0,0.0,M,0.0,M,,*77
$GPGSA,A,3,01,02,03,04,05,06,07,08,09,10,11,12,1.0,1.0,1.0*30
$GPRMC,151633.851,A,4234.229,N,08311.689,W,015.4,090.0,120520,000.0,W*6E
$GPGGA,151634.851,4234.229,N,08311.683,W,1,12,1.0,0.0,M,0.0,M,,*7A
$GPGSA,A,3,01,02,03,04,05,06,07,08,09,10,11,12,1.0,1.0,1.0*30
$GPRMC,151634.851,A,4234.229,N,08311.683,W,020.6,086.5,120520,000.0,W*65
$GPGGA,151635.851,4234.229,N,08311.676,W,1,12,1.0,0.0,M,0.0,M,,*71
$GPGSA,A,3,01,02,03,04,05,06,07,08,09,10,11,12,1.0,1.0,1.0*30
$GPRMC,151635.851,A,4234.229,N,08311.676,W,008.7,098.4,120520,000.0,W*6B
$GPGGA,151636.851,4234.229,N,08311.672,W,1,12,1.0,0.0,M,0.0,M,,*76
$GPGSA,A,3,01,02,03,04,05,06,07,08,09,10,11,12,1.0,1.0,1.0*30
$GPRMC,151636.851,A,4234.229,N,08311.672,W,010.4,136.5,120520,000.0,W*62
$GPGGA,151637.851,4234.226,N,08311.670,W,1,12,1.0,0.0,M,0.0,M,,*7A
$GPGSA,A,3,01,02,03,04,05,06,07,08,09,10,11,12,1.0,1.0,1.0*30
$GPRMC,151637.851,A,4234.226,N,08311.670,W,015.5,171.4,120520,000.0,W*68
$GPGGA,151638.851,4234.222,N,08311.669,W,1,12,1.0,0.0,M,0.0,M,,*79
$GPGSA,A,3,01,02,03,04,05,06,07,08,09,10,11,12,1.0,1.0,1.0*30
$GPRMC,151638.851,A,4234.222,N,08311.669,W,015.6,167.3,120520,000.0,W*68
$GPGGA,151639.851,4234.218,N,08311.668,W,1,12,1.0,0.0,M,0.0,M,,*70
$GPGSA,A,3,01,02,03,04,05,06,07,08,09,10,11,12,1.0,1.0,1.0*30
$GPRMC,151639.851,A,4234.218,N,08311.668,W,018.8,183.5,120520,000.0,W*6E
$GPGGA,151640.851,4234.213,N,08311.669,W,1,12,1.0,0.0,M,0.0,M,,*74
$GPGSA,A,3,01,02,03,04,05,06,07,08,09,10,11,12,1.0,1.0,1.0*30
$GPRMC,151640.851,A,4234.213,N,08311.669,W,016.2,180.0,120520,000.0,W*68
$GPGGA,151641.851,4234.208,N,08311.669,W,1,12,1.0,0.0,M,0.0,M,,*7F
$GPGSA,A,3,01,02,03,04,05,06,07,08,09,10,11,12,1.0,1.0,1.0*30
$GPRMC,151641.851,A,4234.208,N,08311.669,W,015.8,180.0,120520,000.0,W*6A
$GPGGA,151642.851,4234.204,N,08311.669,W,1,12,1.0,0.0,M,0.0,M,,*70
$GPGSA,A,3,01,02,03,04,05,06,07,08,09,10,11,12,1.0,1.0,1.0*30
$GPRMC,151642.851,A,4234.204,N,08311.669,W,017.1,183.9,120520,000.0,W*64
$GPGGA,151643.851,4234.199,N,08311.669,W,1,12,1.0,0.0,M,0.0,M,,*76
$GPGSA,A,3,01,02,03,04,05,06,07,08,09,10,11,12,1.0,1.0,1.0*30
$GPRMC,151643.851,A,4234.199,N,08311.669,W,017.9,180.0,120520,000.0,W*60
$GPGGA,151644.851,4234.194,N,08311.669,W,1,12,1.0,0.0,M,0.0,M,,*7C
$GPGSA,A,3,01,02,03,04,05,06,07,08,09,10,11,12,1.0,1.0,1.0*30
$GPRMC,151644.851,A,4234.194,N,08311.669,W,023.5,178.6,120520,000.0,W*60
$GPGGA,151645.851,4234.188,N,08311.669,W,1,12,1.0,0.0,M,0.0,M,,*70
$GPGSA,A,3,01,02,03,04,05,06,07,08,09,10,11,12,1.0,1.0,1.0*30
$GPRMC,151645.851,A,4234.188,N,08311.669,W,021.8,178.5,120520,000.0,W*60
$GPGGA,151646.851,4234.182,N,08311.669,W,1,12,1.0,0.0,M,0.0,M,,*79
$GPGSA,A,3,01,02,03,04,05,06,07,08,09,10,11,12,1.0,1.0,1.0*30
$GPRMC,151646.851,A,4234.182,N,08311.669,W,024.8,177.3,120520,000.0,W*65
$GPGGA,151647.851,4234.175,N,08311.668,W,1,12,1.0,0.0,M,0.0,M,,*71
$GPGSA,A,3,01,02,03,04,05,06,07,08,09,10,11,12,1.0,1.0,1.0*30
$GPRMC,151647.851,A,4234.175,N,08311.668,W,018.8,180.0,120520,000.0,W*69
$GPGGA,151648.851,4234.169,N,08311.668,W,1,12,1.0,0.0,M,0.0,M,,*73
$GPGSA,A,3,01,02,03,04,05,06,07,08,09,10,11,12,1.0,1.0,1.0*30
$GPRMC,151648.851,A,4234.169,N,08311.668,W,020.9,176.8,120520,000.0,W*60
$GPGGA,151649.851,4234.164,N,08311.668,W,1,12,1.0,0.0,M,0.0,M,,*7F
$GPGSA,A,3,01,02,03,04,05,06,07,08,09,10,11,12,1.0,1.0,1.0*30
$GPRMC,151649.851,A,4234.164,N,08311.668,W,019.2,180.0,120520,000.0,W*6C
$GPGGA,151650.851,4234.158,N,08311.668,W,1,12,1.0,0.0,M,0.0,M,,*78
$GPGSA,A,3,01,02,03,04,05,06,07,08,09,10,11,12,1.0,1.0,1.0*30
$GPRMC,151650.851,A,4234.158,N,08311.668,W,023.1,180.0,120520,000.0,W*61
$GPGGA,151651.851,4234.152,N,08311.668,W,1,12,1.0,0.0,M,0.0,M,,*73
$GPGSA,A,3,01,02,03,04,05,06,07,08,09,10,11,12,1.0,1.0,1.0*30
$GPRMC,151651.851,A,4234.152,N,08311.668,W,021.4,178.4,120520,000.0,W*6E
$GPGGA,151652.851,4234.146,N,08311.668,W,1,12,1.0,0.0,M,0.0,M,,*75
$GPGSA,A,3,01,02,03,04,05,06,07,08,09,10,11,12,1.0,1.0,1.0*30
$GPRMC,151652.851,A,4234.146,N,08311.668,W,018.0,176.3,120520,000.0,W*6F
$GPGGA,151653.851,4234.141,N,08311.668,W,1,12,1.0,0.0,M,0.0,M,,*73
$GPGSA,A,3,01,02,03,04,05,06,07,08,09,10,11,12,1.0,1.0,1.0*30
$GPRMC,151653.851,A,4234.141,N,08311.668,W,027.0,094.0,120520,000.0,W*6B
$GPGGA,151654.851,4234.140,N,08311.657,W,1,12,1.0,0.0,M,0.0,M,,*79
$GPGSA,A,3,01,02,03,04,05,06,07,08,09,10,11,12,1.0,1.0,1.0*30
$GPRMC,151654.851,A,4234.140,N,08311.657,W,020.9,091.7,120520,000.0,W*6D
$GPGGA,151655.851,4234.140,N,08311.650,W,1,12,1.0,0.0,M,0.0,M,,*7F
$GPGSA,A,3,01,02,03,04,05,06,07,08,09,10,11,12,1.0,1.0,1.0*30
$GPRMC,151655.851,A,4234.140,N,08311.650,W,028.6,091.9,120520,000.0,W*62
$GPGGA,151656.851,4234.140,N,08311.639,W,1,12,1.0,0.0,M,0.0,M,,*73
$GPGSA,A,3,01,02,03,04,05,06,07,08,09,10,11,12,1.0,1.0,1.0*30
$GPRMC,151656.851,A,4234.140,N,08311.639,W,023.9,088.5,120520,000.0,W*6E
$GPGGA,151657.851,4234.140,N,08311.630,W,1,12,1.0,0.0,M,0.0,M,,*7B
$GPGSA,A,3,01,02,03,04,05,06,07,08,09,10,11,12,1.0,1.0,1.0*30
$GPRMC,151657.851,A,4234.140,N,08311.630,W,023.5,091.5,120520,000.0,W*62
$GPGGA,151658.851,4234.140,N,08311.621,W,1,12,1.0,0.0,M,0.0,M,,*74
$GPGSA,A,3,01,02,03,04,05,06,07,08,09,10,11,12,1.0,1.0,1.0*30
$GPRMC,151658.851,A,4234.140,N,08311.621,W,030.3,089.4,120520,000.0,W*61
$GPGGA,151659.851,4234.140,N,08311.610,W,1,12,1.0,0.0,M,0.0,M,,*77
$GPGSA,A,3,01,02,03,04,05,06,07,08,09,10,11,12,1.0,1.0,1.0*30
$GPRMC,151659.851,A,4234.140,N,08311.610,W,022.2,088.4,120520,000.0,W*61
$GPGGA,151700.851,4234.140,N,08311.601,W,1,12,1.0,0.0,M,0.0,M,,*7A
$GPGSA,A,3,01,02,03,04,05,06,07,08,09,10,11,12,1.0,1.0,1.0*30
$GPRMC,151700.851,A,4234.140,N,08311.601,W,014.5,088.8,120520,000.0,W*62
$GPGGA,151701.851,4234.140,N,08311.596,W,1,12,1.0,0.0,M,0.0,M,,*76
$GPGSA,A,3,01,02,03,04,05,06,07,08,09,10,11,12,1.0,1.0,1.0*30
$GPRMC,151701.851,A,4234.140,N,08311.596,W,017.4,081.6,120520,000.0,W*6B
$GPGGA,151702.851,4234.141,N,08311.589,W,1,12,1.0,0.0,M,0.0,M,,*7A
$GPGSA,A,3,01,02,03,04,05,06,07,08,09,10,11,12,1.0,1.0,1.0*30
$GPRMC,151702.851,A,4234.141,N,08311.589,W,020.1,000.0,120520,000.0,W*69
$GPGGA,151703.851,4234.147,N,08311.589,W,1,12,1.0,0.0,M,0.0,M,,*7D
$GPGSA,A,3,01,02,03,04,05,06,07,08,09,10,11,12,1.0,1.0,1.0*30
$GPRMC,151703.851,A,4234.147,N,08311.589,W,021.5,350.8,120520,000.0,W*65
$GPGGA,151704.851,4234.153,N,08311.590,W,1,12,1.0,0.0,M,0.0,M,,*77
$GPGSA,A,3,01,02,03,04,05,06,07,08,09,10,11,12,1.0,1.0,1.0*30
$GPRMC,151704.851,A,4234.153,N,08311.590,W,016.8,011.8,120520,000.0,W*60
$GPGGA,151705.851,4234.157,N,08311.589,W,1,12,1.0,0.0,M,0.0,M,,*7A
$GPGSA,A,3,01,02,03,04,05,06,07,08,09,10,11,12,1.0,1.0,1.0*30
$GPRMC,151705.851,A,4234.157,N,08311.589,W,017.9,000.0,120520,000.0,W*65
$GPGGA,151706.851,4234.162,N,08311.589,W,1,12,1.0,0.0,M,0.0,M,,*7F
$GPGSA,A,3,01,02,03,04,05,06,07,08,09,10,11,12,1.0,1.0,1.0*30
$GPRMC,151706.851,A,4234.162,N,08311.589,W,020.6,352.0,120520,000.0,W*6F
$GPGGA,151707.851,4234.168,N,08311.590,W,1,12,1.0,0.0,M,0.0,M,,*7C
$GPGSA,A,3,01,02,03,04,05,06,07,08,09,10,11,12,1.0,1.0,1.0*30
$GPRMC,151707.851,A,4234.168,N,08311.590,W,019.2,000.0,120520,000.0,W*66
$GPGGA,151708.851,4234.173,N,08311.590,W,1,12,1.0,0.0,M,0.0,M,,*79
$GPGSA,A,3,01,02,03,04,05,06,07,08,09,10,11,12,1.0,1.0,1.0*30
$GPRMC,151708.851,A,4234.173,N,08311.590,W,014.1,357.7,120520,000.0,W*6B
$GPGGA,151709.851,4234.177,N,08311.590,W,1,12,1.0,0.0,M,0.0,M,,*7C
$GPGSA,A,3,01,02,03,04,05,06,07,08,09,10,11,12,1.0,1.0,1.0*30
$GPRMC,151709.851,A,4234.177,N,08311.590,W,021.8,357.0,120520,000.0,W*66
$GPGGA,151710.851,4234.183,N,08311.591,W,1,12,1.0,0.0,M,0.0,M,,*7E
$GPGSA,A,3,01,02,03,04,05,06,07,08,09,10,11,12,1.0,1.0,1.0*30
$GPRMC,151710.851,A,4234.183,N,08311.591,W,018.8,356.5,120520,000.0,W*6A
$GPGGA,151711.851,4234.188,N,08311.591,W,1,12,1.0,0.0,M,0.0,M,,*74
$GPGSA,A,3,01,02,03,04,05,06,07,08,09,10,11,12,1.0,1.0,1.0*30
$GPRMC,151711.851,A,4234.188,N,08311.591,W,012.6,023.5,120520,000.0,W*65
$GPGGA,151712.851,4234.192,N,08311.589,W,1,12,1.0,0.0,M,0.0,M,,*75
$GPGSA,A,3,01,02,03,04,05,06,07,08,09,10,11,12,1.0,1.0,1.0*30
$GPRMC,151712.851,A,4234.192,N,08311.589,W,014.9,357.8,120520,000.0,W*60
$GPGGA,151713.851,4234.196,N,08311.590,W,1,12,1.0,0.0,M,0.0,M,,*78
$GPGSA,A,3,01,02,03,04,05,06,07,08,09,10,11,12,1.0,1.0,1.0*30
$GPRMC,151713.851,A,4234.196,N,08311.590,W,016.7,356.0,120520,000.0,W*68
$GPGGA,151714.851,4234.201,N,08311.590,W,1,12,1.0,0.0,M,0.0,M,,*72
$GPGSA,A,3,01,02,03,04,05,06,07,08,09,10,11,12,1.0,1.0,1.0*30
$GPRMC,151714.851,A,4234.201,N,08311.590,W,017.9,001.8,120520,000.0,W*64
$GPGGA,151715.851,4234.206,N,08311.590,W,1,12,1.0,0.0,M,0.0,M,,*74
$GPGSA,A,3,01,02,03,04,05,06,07,08,09,10,11,12,1.0,1.0,1.0*30
$GPRMC,151715.851,A,4234.206,N,08311.590,W,014.1,357.7,120520,000.0,W*66
$GPGGA,151716.851,4234.209,N,08311.590,W,1,12,1.0,0.0,M,0.0,M,,*78
$GPGSA,A,3,01,02,03,04,05,06,07,08,09,10,11,12,1.0,1.0,1.0*30
$GPRMC,151716.851,A,4234.209,N,08311.590,W,017.1,358.1,120520,000.0,W*60
$GPGGA,151717.851,4234.214,N,08311.590,W,1,12,1.0,0.0,M,0.0,M,,*75
$GPGSA,A,3,01,02,03,04,05,06,07,08,09,10,11,12,1.0,1.0,1.0*30
$GPRMC,151717.851,A,4234.214,N,08311.590,W,018.4,358.2,120520,000.0,W*64
$GPGGA,151718.851,4234.219,N,08311.590,W,1,12,1.0,0.0,M,0.0,M,,*77
$GPGSA,A,3,01,02,03,04,05,06,07,08,09,10,11,12,1.0,1.0,1.0*30
$GPRMC,151718.851,A,4234.219,N,08311.590,W,017.5,358.1,120520,000.0,W*6B
$GPGGA,151719.851,4234.224,N,08311.590,W,1,12,1.0,0.0,M,0.0,M,,*78
$GPGSA,A,3,01,02,03,04,05,06,07,08,09,10,11,12,1.0,1.0,1.0*30
$GPRMC,151719.851,A,4234.224,N,08311.590,W,019.7,356.6,120520,000.0,W*61
$GPGGA,151720.851,4234.230,N,08311.591,W,1,12,1.0,0.0,M,0.0,M,,*76
$GPGSA,A,3,01,02,03,04,05,06,07,08,09,10,11,12,1.0,1.0,1.0*30
$GPRMC,151720.851,A,4234.230,N,08311.591,W,020.9,356.8,120520,000.0,W*65
$GPGGA,151721.851,4234.235,N,08311.591,W,1,12,1.0,0.0,M,0.0,M,,*72
$GPGSA,A,3,01,02,03,04,05,06,07,08,09,10,11,12,1.0,1.0,1.0*30
$GPRMC,151721.851,A,4234.235,N,08311.591,W,018.4,000.0,120520,000.0,W*6F
$GPGGA,151722.851,4234.240,N,08311.591,W,1,12,1.0,0.0,M,0.0,M,,*73
$GPGSA,A,3,01,02,03,04,05,06,07,08,09,10,11,12,1.0,1.0,1.0*30
$GPRMC,151722.851,A,4234.240,N,08311.591,W,016.2,355.9,120520,000.0,W*6C
$GPGGA,151723.851,4234.245,N,08311.591,W,1,12,1.0,0.0,M,0.0,M,,*77
$GPGSA,A,3,01,02,03,04,05,06,07,08,09,10,11,12,1.0,1.0,1.0*30
$GPRMC,151723.851,A,4234.245,N,08311.591,W,015.8,355.8,120520,000.0,W*60
$GPGGA,151724.851,4234.249,N,08311.592,W,1,12,1.0,0.0,M,0.0,M,,*7F
$GPGSA,A,3,01,02,03,04,05,06,07,08,09,10,11,12,1.0,1.0,1.0*30
$GPRMC,151724.851,A,4234.249,N,08311.592,W,017.5,358.1,120520,000.0,W*63
$GPGGA,151725.851,4234.254,N,08311.592,W,1,12,1.0,0.0,M,0.0,M,,*72
$GPGSA,A,3,01,02,03,04,05,06,07,08,09,10,11,12,1.0,1.0,1.0*30
$GPRMC,151725.851,A,4234.254,N,08311.592,W,018.8,000.0,120520,000.0,W*63
$GPGGA,151726.851,4234.259,N,08311.592,W,1,12,1.0,0.0,M,0.0,M,,*7C
$GPGSA,A,3,01,02,03,04,05,06,07,08,09,10,11,12,1.0,1.0,1.0*30
$GPRMC,151726.851,A,4234.259,N,08311.592,W,019.8,351.6,120520,000.0,W*6D
$GPGGA,151727.851,4234.265,N,08311.593,W,1,12,1.0,0.0,M,0.0,M,,*73
$GPGSA,A,3,01,02,03,04,05,06,07,08,09,10,11,12,1.0,1.0,1.0*30
$GPRMC,151727.851,A,4234.265,N,08311.593,W,018.7,345.9,120520,000.0,W*66
$GPGGA,151728.851,4234.270,N,08311.594,W,1,12,1.0,0.0,M,0.0,M,,*7F
$GPGSA,A,3,01,02,03,04,05,06,07,08,09,10,11,12,1.0,1.0,1.0*30
$GPRMC,151728.851,A,4234.270,N,08311.594,W,019.3,342.9,120520,000.0,W*68
$GPGGA,151729.851,4234.275,N,08311.596,W,1,12,1.0,0.0,M,0.0,M,,*79
$GPGSA,A,3,01,02,03,04,05,06,07,08,09,10,11,12,1.0,1.0,1.0*30
$GPRMC,151729.851,A,4234.275,N,08311.596,W,018.9,340.9,120520,000.0,W*67
$GPGGA,151730.851,4234.280,N,08311.597,W,1,12,1.0,0.0,M,0.0,M,,*7A
$GPGSA,A,3,01,02,03,04,05,06,07,08,09,10,11,12,1.0,1.0,1.0*30
$GPRMC,151730.851,A,4234.280,N,08311.597,W,017.0,336.8,120520,000.0,W*62
$GPGGA,151731.851,4234.285,N,08311.599,W,1,12,1.0,0.0,M,0.0,M,,*70
$GPGSA,A,3,01,02,03,04,05,06,07,08,09,10,11,12,1.0,1.0,1.0*30
$GPRMC,151731.851,A,4234.285,N,08311.599,W,013.0,337.2,120520,000.0,W*67
$GPGGA,151732.851,4234.288,N,08311.601,W,1,12,1.0,0.0,M,0.0,M,,*7C
$GPGSA,A,3,01,02,03,04,05,06,07,08,09,10,11,12,1.0,1.0,1.0*30
$GPRMC,151732.851,A,4234.288,N,08311.601,W,011.7,329.2,120520,000.0,W*61
$GPGGA,151733.851,4234.291,N,08311.602,W,1,12,1.0,0.0,M,0.0,M,,*76
$GPGSA,A,3,01,02,03,04,05,06,07,08,09,10,11,12,1.0,1.0,1.0*30
$GPRMC,151733.851,A,4234.291,N,08311.602,W,006.9,264.7,120520,000.0,W*6E
$GPGGA,151734.851,4234.291,N,08311.605,W,1,12,1.0,0.0,M,0.0,M,,*76
$GPGSA,A,3,01,02,03,04,05,06,07,08,09,10,11,12,1.0,1.0,1.0*30
$GPRMC,151734.851,A,4234.291,N,08311.605,W,008.8,259.5,120520,000.0,W*6D
$GPGGA,151735.851,4234.290,N,08311.608,W,1,12,1.0,0.0,M,0.0,M,,*7B
$GPGSA,A,3,01,02,03,04,05,06,07,08,09,10,11,12,1.0,1.0,1.0*30
$GPRMC,151735.851,A,4234.290,N,08311.608,W,010.6,259.5,120520,000.0,W*67
$GPGGA,151736.851,4234.290,N,08311.612,W,1,12,1.0,0.0,M,0.0,M,,*73
$GPGSA,A,3,01,02,03,04,05,06,07,08,09,10,11,12,1.0,1.0,1.0*30
$GPRMC,151736.851,A,4234.290,N,08311.612,W,011.3,261.9,120520,000.0,W*6C
$GPGGA,151737.851,4234.289,N,08311.616,W,1,12,1.0,0.0,M,0.0,M,,*7E
$GPGSA,A,3,01,02,03,04,05,06,07,08,09,10,11,12,1.0,1.0,1.0*30
$GPRMC,151737.851,A,4234.289,N,08311.616,W,009.7,258.6,120520,000.0,W*69
$GPGGA,151738.851,4234.288,N,08311.620,W,1,12,1.0,0.0,M,0.0,M,,*75
$GPGSA,A,3,01,02,03,04,05,06,07,08,09,10,11,12,1.0,1.0,1.0*30
$GPRMC,151738.851,A,4234.288,N,08311.620,W,014.7,263.8,120520,000.0,W*68
$GPGGA,151739.851,4234.288,N,08311.625,W,1,12,1.0,0.0,M,0.0,M,,*71
$GPGSA,A,3,01,02,03,04,05,06,07,08,09,10,11,12,1.0,1.0,1.0*30
$GPRMC,151739.851,A,4234.288,N,08311.625,W,013.3,264.6,120520,000.0,W*66
$GPGGA,151740.851,4234.287,N,08311.630,W,1,12,1.0,0.0,M,0.0,M,,*74
$GPGSA,A,3,01,02,03,04,05,06,07,08,09,10,11,12,1.0,1.0,1.0*30
$GPRMC,151740.851,A,4234.287,N,08311.630,W,012.4,267.1,120520,000.0,W*61
$GPGGA,151741.851,4234.287,N,08311.635,W,1,12,1.0,0.0,M,0.0,M,,*70
$GPGSA,A,3,01,02,03,04,05,06,07,08,09,10,11,12,1.0,1.0,1.0*30
$GPRMC,151741.851,A,4234.287,N,08311.635,W,011.2,263.5,120520,000.0,W*60
$GPGGA,151742.851,4234.287,N,08311.639,W,1,12,1.0,0.0,M,0.0,M,,*7F
$GPGSA,A,3,01,02,03,04,05,06,07,08,09,10,11,12,1.0,1.0,1.0*30
$GPRMC,151742.851,A,4234.287,N,08311.639,W,014.6,266.3,120520,000.0,W*6D
$GPGGA,151743.851,4234.286,N,08311.645,W,1,12,1.0,0.0,M,0.0,M,,*74
$GPGSA,A,3,01,02,03,04,05,06,07,08,09,10,11,12,1.0,1.0,1.0*30
$GPRMC,151743.851,A,4234.286,N,08311.645,W,012.0,268.5,120520,000.0,W*6E
$GPGGA,151744.851,4234.286,N,08311.649,W,1,12,1.0,0.0,M,0.0,M,,*7F
$GPGSA,A,3,01,02,03,04,05,06,07,08,09,10,11,12,1.0,1.0,1.0*30
$GPRMC,151744.851,A,4234.286,N,08311.649,W,015.9,265.4,120520,000.0,W*67
$GPGGA,151745.851,4234.286,N,08311.655,W,1,12,1.0,0.0,M,0.0,M,,*73
$GPGSA,A,3,01,02,03,04,05,06,07,08,09,10,11,12,1.0,1.0,1.0*30
$GPRMC,151745.851,A,4234.286,N,08311.655,W,012.0,271.5,120520,000.0,W*61
$GPGGA,151746.851,4234.286,N,08311.660,W,1,12,1.0,0.0,M,0.0,M,,*76
$GPGSA,A,3,01,02,03,04,05,06,07,08,09,10,11,12,1.0,1.0,1.0*30
$GPRMC,151746.851,A,4234.286,N,08311.660,W,010.2,270.0,120520,000.0,W*60
$GPGGA,151747.851,4234.286,N,08311.663,W,1,12,1.0,0.0,M,0.0,M,,*74
$GPGSA,A,3,01,02,03,04,05,06,07,08,09,10,11,12,1.0,1.0,1.0*30
$GPRMC,151747.851,A,4234.286,N,08311.663,W,008.3,296.9,120520,000.0,W*6B
$GPGGA,151748.851,4234.287,N,08311.666,W,1,12,1.0,0.0,M,0.0,M,,*7F
$GPGSA,A,3,01,02,03,04,05,06,07,08,09,10,11,12,1.0,1.0,1.0*30
$GPRMC,151748.851,A,4234.287,N,08311.666,W,011.1,357.0,120520,000.0,W*6F
$GPGGA,151749.851,4234.290,N,08311.666,W,1,12,1.0,0.0,M,0.0,M,,*78
$GPGSA,A,3,01,02,03,04,05,06,07,08,09,10,11,12,1.0,1.0,1.0*30
$GPRMC,151749.851,A,4234.290,N,08311.666,W,013.2,357.5,120520,000.0,W*6C
$GPGGA,151750.851,4234.294,N,08311.666,W,1,12,1.0,0.0,M,0.0,M,,*74
$GPGSA,A,3,01,02,03,04,05,06,07,08,09,10,11,12,1.0,1.0,1.0*30
$GPRMC,151750.851,A,4234.294,N,08311.666,W,015.0,355.6,120520,000.0,W*65
$GPGGA,151751.851,4234.298,N,08311.667,W,1,12,1.0,0.0,M,0.0,M,,*78
$GPGSA,A,3,01,02,03,04,05,06,07,08,09,10,11,12,1.0,1.0,1.0*30
$GPRMC,151751.851,A,4234.298,N,08311.667,W,013.7,357.6,120520,000.0,W*6A
$GPGGA,151752.851,4234.302,N,08311.667,W,1,12,1.0,0.0,M,0.0,M,,*79
$GPGSA,A,3,01,02,03,04,05,06,07,08,09,10,11,12,1.0,1.0,1.0*30
$GPRMC,151752.851,A,4234.302,N,08311.667,W,015.4,357.8,120520,000.0,W*60
$GPGGA,151753.851,4234.306,N,08311.667,W,1,12,1.0,0.0,M,0.0,M,,*7C
$GPGSA,A,3,01,02,03,04,05,06,07,08,09,10,11,12,1.0,1.0,1.0*30
$GPRMC,151753.851,A,4234.306,N,08311.667,W,013.3,355.0,120520,000.0,W*6E
$GPGGA,151754.851,4234.310,N,08311.667,W,1,12,1.0,0.0,M,0.0,M,,*7C
$GPGSA,A,3,01,02,03,04,05,06,07,08,09,10,11,12,1.0,1.0,1.0*30
$GPRMC,151754.851,A,4234.310,N,08311.667,W,014.5,357.7,120520,000.0,W*6A
$GPGGA,151755.851,4234.314,N,08311.667,W,1,12,1.0,0.0,M,0.0,M,,*79
$GPGSA,A,3,01,02,03,04,05,06,07,08,09,10,11,12,1.0,1.0,1.0*30
$GPRMC,151755.851,A,4234.314,N,08311.667,W,015.4,357.8,120520,000.0,W*60
$GPGGA,151756.851,4234.318,N,08311.668,W,1,12,1.0,0.0,M,0.0,M,,*79
$GPGSA,A,3,01,02,03,04,05,06,07,08,09,10,11,12,1.0,1.0,1.0*30
$GPRMC,151756.851,A,4234.318,N,08311.668,W,015.0,355.6,120520,000.0,W*68
$GPGGA,151757.851,4234.322,N,08311.668,W,1,12,1.0,0.0,M,0.0,M,,*71
$GPGSA,A,3,01,02,03,04,05,06,07,08,09,10,11,12,1.0,1.0,1.0*30
$GPRMC,151757.851,A,4234.322,N,08311.668,W,014.6,353.2,120520,000.0,W*65
$GPGGA,151758.851,4234.326,N,08311.668,W,1,12,1.0,0.0,M,0.0,M,,*7A
$GPGSA,A,3,01,02,03,04,05,06,07,08,09,10,11,12,1.0,1.0,1.0*30
$GPRMC,151758.851,A,4234.326,N,08311.668,W,012.0,351.7,120520,000.0,W*69
$GPGGA,151759.851,4234.329,N,08311.669,W,1,12,1.0,0.0,M,0.0,M,,*75
$GPGSA,A,3,01,02,03,04,05,06,07,08,09,10,11,12,1.0,1.0,1.0*30
$GPRMC,151759.851,A,4234.329,N,08311.669,W,013.7,000.0,120520,000.0,W*60
$GPGGA,151800.851,4234.333,N,08311.669,W,1,12,1.0,0.0,M,0.0,M,,*7D
$GPGSA,A,3,01,02,03,04,05,06,07,08,09,10,11,12,1.0,1.0,1.0*30
$GPRMC,151800.851,A,4234.333,N,08311.669,W,014.6,353.2,120520,000.0,W*69
$GPGGA,151801.851,4234.337,N,08311.669,W,1,12,1.0,0.0,M,0.0,M,,*78
$GPGSA,A,3,01,02,03,04,05,06,07,08,09,10,11,12,1.0,1.0,1.0*30
$GPRMC,151801.851,A,4234.337,N,08311.669,W,012.4,354.7,120520,000.0,W*6A
$GPGGA,151802.851,4234.341,N,08311.670,W,1,12,1.0,0.0,M,0.0,M,,*72
$GPGSA,A,3,01,02,03,04,05,06,07,08,09,10,11,12,1.0,1.0,1.0*30
$GPRMC,151802.851,A,4234.341,N,08311.670,W,013.7,357.6,120520,000.0,W*60
$GPGGA,151803.851,4234.345,N,08311.670,W,1,12,1.0,0.0,M,0.0,M,,*77
$GPGSA,A,3,01,02,03,04,05,06,07,08,09,10,11,12,1.0,1.0,1.0*30
$GPRMC,151803.851,A,4234.345,N,08311.670,W,012.8,354.8,120520,000.0,W*66
$GPGGA,151804.851,4234.348,N,08311.670,W,1,12,1.0,0.0,M,0.0,M,,*7D
$GPGSA,A,3,01,02,03,04,05,06,07,08,09,10,11,12,1.0,1.0,1.0*30
$GPRMC,151804.851,A,4234.348,N,08311.670,W,013.7,000.0,120520,000.0,W*68
$GPGGA,151805.851,4234.352,N,08311.670,W,1,12,1.0,0.0,M,0.0,M,,*77
$GPGSA,A,3,01,02,03,04,05,06,07,08,09,10,11,12,1.0,1.0,1.0*30
$GPRMC,151805.851,A,4234.352,N,08311.670,W,015.4,000.0,120520,000.0,W*67
$GPGGA,151806.851,4234.356,N,08311.670,W,1,12,1.0,0.0,M,0.0,M,,*70
$GPGSA,A,3,01,02,03,04,05,06,07,08,09,10,11,12,1.0,1.0,1.0*30
$GPRMC,151806.851,A,4234.356,N,08311.670,W,014.6,353.2,120520,000.0,W*64
$GPGGA,151807.851,4234.360,N,08311.671,W,1,12,1.0,0.0,M,0.0,M,,*75
$GPGSA,A,3,01,02,03,04,05,06,07,08,09,10,11,12,1.0,1.0,1.0*30
$GPRMC,151807.851,A,4234.360,N,08311.671,W,014.9,000.0,120520,000.0,W*69
$GPGGA,151808.851,4234.364,N,08311.671,W,1,12,1.0,0.0,M,0.0,M,,*7E
$GPGSA,A,3,01,02,03,04,05,06,07,08,09,10,11,12,1.0,1.0,1.0*30
$GPRMC,151808.851,A,4234.364,N,08311.671,W,011.2,351.1,120520,000.0,W*6A
$GPGGA,151809.851,4234.367,N,08311.671,W,1,12,1.0,0.0,M,0.0,M,,*7C
$GPGSA,A,3,01,02,03,04,05,06,07,08,09,10,11,12,1.0,1.0,1.0*30
$GPRMC,151809.851,A,4234.367,N,08311.671,W,012.4,356.0,120520,000.0,W*6B
$GPGGA,151810.851,4234.371,N,08311.671,W,1,12,1.0,0.0,M,0.0,M,,*73
$GPGSA,A,3,01,02,03,04,05,06,07,08,09,10,11,12,1.0,1.0,1.0*30
$GPRMC,151810.851,A,4234.371,N,08311.671,W,010.7,356.9,120520,000.0,W*6C
$GPGGA,151811.851,4234.374,N,08311.672,W,1,12,1.0,0.0,M,0.0,M,,*74
$GPGSA,A,3,01,02,03,04,05,06,07,08,09,10,11,12,1.0,1.0,1.0*30
$GPRMC,151811.851,A,4234.374,N,08311.672,W,011.5,355.7,120520,000.0,W*65
$GPGGA,151812.851,4234.377,N,08311.672,W,1,12,1.0,0.0,M,0.0,M,,*74
$GPGSA,A,3,01,02,03,04,05,06,07,08,09,10,11,12,1.0,1.0,1.0*30
$GPRMC,151812.851,A,4234.377,N,08311.672,W,012.4,000.0,120520,000.0,W*63
$GPGGA,151813.851,4234.380,N,08311.672,W,1,12,1.0,0.0,M,0.0,M,,*7D
$GPGSA,A,3,01,02,03,04,05,06,07,08,09,10,11,12,1.0,1.0,1.0*30
$GPRMC,151813.851,A,4234.380,N,08311.672,W,012.6,353.5,120520,000.0,W*68
$GPGGA,151814.851,4234.384,N,08311.672,W,1,12,1.0,0.0,M,0.0,M,,*7E
$GPGSA,A,3,01,02,03,04,05,06,07,08,09,10,11,12,1.0,1.0,1.0*30
$GPRMC,151814.851,A,4234.384,N,08311.672,W,010.9,355.4,120520,000.0,W*61
$GPGGA,151815.851,4234.387,N,08311.672,W,1,12,1.0,0.0,M,0.0,M,,*7C
$GPGSA,A,3,01,02,03,04,05,06,07,08,09,10,11,12,1.0,1.0,1.0*30
$GPRMC,151815.851,A,4234.387,N,08311.672,W,012.4,000.0,120520,000.0,W*6B
$GPGGA,151816.851,4234.390,N,08311.672,W,1,12,1.0,0.0,M,0.0,M,,*79
$GPGSA,A,3,01,02,03,04,05,06,07,08,09,10,11,12,1.0,1.0,1.0*30
$GPRMC,151816.851,A,4234.390,N,08311.672,W,009.2,354.6,120520,000.0,W*66
$GPGGA,151817.851,4234.393,N,08311.673,W,1,12,1.0,0.0,M,0.0,M,,*7A
$GPGSA,A,3,01,02,03,04,05,06,07,08,09,10,11,12,1.0,1.0,1.0*30
$GPRMC,151817.851,A,4234.393,N,08311.673,W,010.3,353.6,120520,000.0,W*6B
$GPGGA,151818.851,4234.396,N,08311.673,W,1,12,1.0,0.0,M,0.0,M,,*70
$GPGSA,A,3,01,02,03,04,05,06,07,08,09,10,11,12,1.0,1.0,1.0*30
$GPRMC,151818.851,A,4234.396,N,08311.673,W,010.9,358.5,120520,000.0,W*63
$GPGGA,151819.851,4234.399,N,08311.673,W,1,12,1.0,0.0,M,0.0,M,,*7E
$GPGSA,A,3,01,02,03,04,05,06,07,08,09,10,11,12,1.0,1.0,1.0*30
$GPRMC,151819.851,A,4234.399,N,08311.673,W,011.5,355.7,120520,000.0,W*6F
$GPGGA,151820.851,4234.402,N,08311.673,W,1,12,1.0,0.0,M,0.0,M,,*71
$GPGSA,A,3,01,02,03,04,05,06,07,08,09,10,11,12,1.0,1.0,1.0*30
$GPRMC,151820.851,A,4234.402,N,08311.673,W,011.3,357.1,120520,000.0,W*62
$GPGGA,151821.851,4234.405,N,08311.674,W,1,12,1.0,0.0,M,0.0,M,,*70
$GPGSA,A,3,01,02,03,04,05,06,07,08,09,10,11,12,1.0,1.0,1.0*30
$GPRMC,151821.851,A,4234.405,N,08311.674,W,010.7,000.0,120520,000.0,W*66
$GPGGA,151822.851,4234.408,N,08311.674,W,1,12,1.0,0.0,M,0.0,M,,*7E
$GPGSA,A,3,01,02,03,04,05,06,07,08,09,10,11,12,1.0,1.0,1.0*30
$GPRMC,151822.851,A,4234.408,N,08311.674,W,009.6,000.0,120520,000.0,W*61
$GPGGA,151823.851,4234.411,N,08311.674,W,1,12,1.0,0.0,M,0.0,M,,*77
$GPGSA,A,3,01,02,03,04,05,06,07,08,09,10,11,12,1.0,1.0,1.0*30
$GPRMC,151823.851,A,4234.411,N,08311.674,W,011.0,350.9,120520,000.0,W*68
$GPGGA,151824.851,4234.414,N,08311.674,W,1,12,1.0,0.0,M,0.0,M,,*75
$GPGSA,A,3,01,02,03,04,05,06,07,08,09,10,11,12,1.0,1.0,1.0*30
$GPRMC,151824.851,A,4234.414,N,08311.674,W,012.0,358.6,120520,000.0,W*6E
$GPGGA,151825.851,4234.417,N,08311.674,W,1,12,1.0,0.0,M,0.0,M,,*77
$GPGSA,A,3,01,02,03,04,05,06,07,08,09,10,11,12,1.0,1.0,1.0*30
$GPRMC,151825.851,A,4234.417,N,08311.674,W,009.2,000.0,120520,000.0,W*6C
$GPGGA,151826.851,4234.420,N,08311.674,W,1,12,1.0,0.0,M,0.0,M,,*70
$GPGSA,A,3,01,02,03,04,05,06,07,08,09,10,11,12,1.0,1.0,1.0*30
$GPRMC,151826.851,A,4234.420,N,08311.674,W,010.9,357.0,120520,000.0,W*69
$GPGGA,151827.851,4234.423,N,08311.674,W,1,12,1.0,0.0,M,0.0,M,,*72
$GPGSA,A,3,01,02,03,04,05,06,07,08,09,10,11,12,1.0,1.0,1.0*30
$GPRMC,151827.851,A,4234.423,N,08311.674,W,010.0,000.0,120520,000.0,W*63
$GPGGA,151828.851,4234.425,N,08311.674,W,1,12,1.0,0.0,M,0.0,M,,*7B
$GPGSA,A,3,01,02,03,04,05,06,07,08,09,10,11,12,1.0,1.0,1.0*30
$GPRMC,151828.851,A,4234.425,N,08311.674,W,008.6,354.2,120520,000.0,W*65
$GPGGA,151829.851,4234.428,N,08311.674,W,1,12,1.0,0.0,M,0.0,M,,*77
$GPGSA,A,3,01,02,03,04,05,06,07,08,09,10,11,12,1.0,1.0,1.0*30
$GPRMC,151829.851,A,4234.428,N,08311.674,W,009.8,355.0,120520,000.0,W*65
$GPGGA,151830.851,4234.431,N,08311.675,W,1,12,1.0,0.0,M,0.0,M,,*76
$GPGSA,A,3,01,02,03,04,05,06,07,08,09,10,11,12,1.0,1.0,1.0*30
$GPRMC,151830.851,A,4234.431,N,08311.675,W,010.7,000.0,120520,000.0,W*60
$GPGGA,151831.851,4234.434,N,08311.675,W,1,12,1.0,0.0,M,0.0,M,,*72
$GPGSA,A,3,01,02,03,04,05,06,07,08,09,10,11,12,1.0,1.0,1.0*30
$GPRMC,151831.851,A,4234.434,N,08311.675,W,010.9,358.5,120520,000.0,W*61
$GPGGA,151832.851,4234.437,N,08311.675,W,1,12,1.0,0.0,M,0.0,M,,*72
$GPGSA,A,3,01,02,03,04,05,06,07,08,09,10,11,12,1.0,1.0,1.0*30
$GPRMC,151832.851,A,4234.437,N,08311.675,W,013.3,356.3,120520,000.0,W*60
$GPGGA,151833.851,4234.440,N,08311.675,W,1,12,1.0,0.0,M,0.0,M,,*73
$GPGSA,A,3,01,02,03,04,05,06,07,08,09,10,11,12,1.0,1.0,1.0*30
$GPRMC,151833.851,A,4234.440,N,08311.675,W,014.5,357.7,120520,000.0,W*65
$GPGGA,151834.851,4234.444,N,08311.675,W,1,12,1.0,0.0,M,0.0,M,,*70
$GPGSA,A,3,01,02,03,04,05,06,07,08,09,10,11,12,1.0,1.0,1.0*30
$GPRMC,151834.851,A,4234.444,N,08311.675,W,012.8,357.4,120520,000.0,W*6E
$GPGGA,151835.851,4234.448,N,08311.675,W,1,12,1.0,0.0,M,0.0,M,,*7D
$GPGSA,A,3,01,02,03,04,05,06,07,08,09,10,11,12,1.0,1.0,1.0*30
$GPRMC,151835.851,A,4234.448,N,08311.675,W,013.7,358.8,120520,000.0,W*6E
$GPGGA,151836.851,4234.452,N,08311.675,W,1,12,1.0,0.0,M,0.0,M,,*75
$GPGSA,A,3,01,02,03,04,05,06,07,08,09,10,11,12,1.0,1.0,1.0*30
$GPRMC,151836.851,A,4234.452,N,08311.675,W,013.2,357.5,120520,000.0,W*61
$GPGGA,151837.851,4234.455,N,08311.676,W,1,12,1.0,0.0,M,0.0,M,,*70
$GPGSA,A,3,01,02,03,04,05,06,07,08,09,10,11,12,1.0,1.0,1.0*30
$GPRMC,151837.851,A,4234.455,N,08311.676,W,011.3,357.1,120520,000.0,W*63
$GPGGA,151838.851,4234.458,N,08311.676,W,1,12,1.0,0.0,M,0.0,M,,*72
$GPGSA,A,3,01,02,03,04,05,06,07,08,09,10,11,12,1.0,1.0,1.0*30
$GPRMC,151838.851,A,4234.458,N,08311.676,W,016.4,359.0,120520,000.0,W*6E
$GPGGA,151839.851,4234.463,N,08311.676,W,1,12,1.0,0.0,M,0.0,M,,*7B
$GPGSA,A,3,01,02,03,04,05,06,07,08,09,10,11,12,1.0,1.0,1.0*30
$GPRMC,151839.851,A,4234.463,N,08311.676,W,014.3,355.4,120520,000.0,W*6A
$GPGGA,151840.851,4234.467,N,08311.676,W,1,12,1.0,0.0,M,0.0,M,,*71
$GPGSA,A,3,01,02,03,04,05,06,07,08,09,10,11,12,1.0,1.0,1.0*30
$GPRMC,151840.851,A,4234.467,N,08311.676,W,012.4,000.0,120520,000.0,W*66
$GPGGA,151841.851,4234.470,N,08311.676,W,1,12,1.0,0.0,M,0.0,M,,*76
$GPGSA,A,3,01,02,03,04,05,06,07,08,09,10,11,12,1.0,1.0,1.0*30
$GPRMC,151841.851,A,4234.470,N,08311.676,W,012.2,354.6,120520,000.0,W*63
$GPGGA,151842.851,4234.474,N,08311.676,W,1,12,1.0,0.0,M,0.0,M,,*71
$GPGSA,A,3,01,02,03,04,05,06,07,08,09,10,11,12,1.0,1.0,1.0*30
$GPRMC,151842.851,A,4234.474,N,08311.676,W,010.5,350.6,120520,000.0,W*65
$GPGGA,151843.851,4234.477,N,08311.677,W,1,12,1.0,0.0,M,0.0,M,,*72
$GPGSA,A,3,01,02,03,04,05,06,07,08,09,10,11,12,1.0,1.0,1.0*30
$GPRMC,151843.851,A,4234.477,N,08311.677,W,012.6,344.3,120520,000.0,W*67
$GPGGA,151844.851,4234.480,N,08311.678,W,1,12,1.0,0.0,M,0.0,M,,*72
$GPGSA,A,3,01,02,03,04,05,06,07,08,09,10,11,12,1.0,1.0,1.0*30
$GPRMC,151844.851,A,4234.480,N,08311.678,W,010.5,332.1,120520,000.0,W*65
$GPGGA,151845.851,4234.483,N,08311.679,W,1,12,1.0,0.0,M,0.0,M,,*71
$GPGSA,A,3,01,02,03,04,05,06,07,08,09,10,11,12,1.0,1.0,1.0*30
$GPRMC,151845.851,A,4234.483,N,08311.679,W,010.2,314.1,120520,000.0,W*65
$GPGGA,151846.851,4234.485,N,08311.682,W,1,12,1.0,0.0,M,0.0,M,,*70
$GPGSA,A,3,01,02,03,04,05,06,07,08,09,10,11,12,1.0,1.0,1.0*30
$GPRMC,151846.851,A,4234.485,N,08311.682,W,009.7,309.9,120520,000.0,W*6D
$GPGGA,151847.851,4234.487,N,08311.684,W,1,12,1.0,0.0,M,0.0,M,,*75
$GPGSA,A,3,01,02,03,04,05,06,07,08,09,10,11,12,1.0,1.0,1.0*30
$GPRMC,151847.851,A,4234.487,N,08311.684,W,011.8,303.7,120520,000.0,W*6A
$GPGGA,151848.851,4234.489,N,08311.687,W,1,12,1.0,0.0,M,0.0,M,,*77
$GPGSA,A,3,01,02,03,04,05,06,07,08,09,10,11,12,1.0,1.0,1.0*30
$GPRMC,151848.851,A,4234.489,N,08311.687,W,011.6,295.0,120520,000.0,W*6F
$GPGGA,151849.851,4234.491,N,08311.691,W,1,12,1.0,0.0,M,0.0,M,,*78
$GPGSA,A,3,01,02,03,04,05,06,07,08,09,10,11,12,1.0,1.0,1.0*30
$GPRMC,151849.851,A,4234.491,N,08311.691,W,010.2,281.8,120520,000.0,W*68
$GPGGA,151850.851,4234.492,N,08311.695,W,1,12,1.0,0.0,M,0.0,M,,*77
$GPGSA,A,3,01,02,03,04,05,06,07,08,09,10,11,12,1.0,1.0,1.0*30
$GPRMC,151850.851,A,4234.492,N,08311.695,W,012.5,279.6,120520,000.0,W*6B
$GPGGA,151851.851,4234.493,N,08311.699,W,1,12,1.0,0.0,M,0.0,M,,*7B
$GPGSA,A,3,01,02,03,04,05,06,07,08,09,10,11,12,1.0,1.0,1.0*30
$GPRMC,151851.851,A,4234.493,N,08311.699,W,015.0,277.9,120520,000.0,W*64
$GPGGA,151852.851,4234.493,N,08311.705,W,1,12,1.0,0.0,M,0.0,M,,*7C
$GPGSA,A,3,01,02,03,04,05,06,07,08,09,10,11,12,1.0,1.0,1.0*30
$GPRMC,151852.851,A,4234.493,N,08311.705,W,013.5,281.0,120520,000.0,W*60
$GPGGA,151853.851,4234.494,N,08311.710,W,1,12,1.0,0.0,M,0.0,M,,*7E
$GPGSA,A,3,01,02,03,04,05,06,07,08,09,10,11,12,1.0,1.0,1.0*30
$GPRMC,151853.851,A,4234.494,N,08311.710,W,011.3,277.3,120520,000.0,W*6C
$GPGGA,151854.851,4234.495,N,08311.714,W,1,12,1.0,0.0,M,0.0,M,,*7C
$GPGSA,A,3,01,02,03,04,05,06,07,08,09,10,11,12,1.0,1.0,1.0*30
$GPRMC,151854.851,A,4234.495,N,08311.714,W,011.4,276.4,120520,000.0,W*6F
$GPGGA,151855.851,4234.495,N,08311.718,W,1,12,1.0,0.0,M,0.0,M,,*71
$GPGSA,A,3,01,02,03,04,05,06,07,08,09,10,11,12,1.0,1.0,1.0*30
$GPRMC,151855.851,A,4234.495,N,08311.718,W,012.1,277.5,120520,000.0,W*64
$GPGGA,151856.851,4234.496,N,08311.723,W,1,12,1.0,0.0,M,0.0,M,,*79
$GPGSA,A,3,01,02,03,04,05,06,07,08,09,10,11,12,1.0,1.0,1.0*30
$GPRMC,151856.851,A,4234.496,N,08311.723,W,012.8,277.8,120520,000.0,W*68
$GPGGA,151857.851,4234.497,N,08311.728,W,1,12,1.0,0.0,M,0.0,M,,*72
$GPGSA,A,3,01,02,03,04,05,06,07,08,09,10,11,12,1.0,1.0,1.0*30
$GPRMC,151857.851,A,4234.497,N,08311.728,W,013.0,277.0,120520,000.0,W*62
$GPGGA,151858.851,4234.497,N,08311.732,W,1,12,1.0,0.0,M,0.0,M,,*76
$GPGSA,A,3,01,02,03,04,05,06,07,08,09,10,11,12,1.0,1.0,1.0*30
$GPRMC,151858.851,A,4234.497,N,08311.732,W,011.7,276.2,120520,000.0,W*60
$GPGGA,151859.851,4234.498,N,08311.737,W,1,12,1.0,0.0,M,0.0,M,,*7D
$GPGSA,A,3,01,02,03,04,05,06,07,08,09,10,11,12,1.0,1.0,1.0*30
$GPRMC,151859.851,A,4234.498,N,08311.737,W,010.4,277.9,120520,000.0,W*63
$GPGGA,151900.851,4234.498,N,08311.741,W,1,12,1.0,0.0,M,0.0,M,,*71
$GPGSA,A,3,01,02,03,04,05,06,07,08,09,10,11,12,1.0,1.0,1.0*30
$GPRMC,151900.851,A,4234.498,N,08311.741,W,010.8,275.9,120520,000.0,W*61
$GPGGA,151901.851,4234.499,N,08311.745,W,1,12,1.0,0.0,M,0.0,M,,*75
$GPGSA,A,3,01,02,03,04,05,06,07,08,09,10,11,12,1.0,1.0,1.0*30
$GPRMC,151901.851,A,4234.499,N,08311.745,W,012.4,277.4,120520,000.0,W*64
$GPGGA,151902.851,4234.499,N,08311.749,W,1,12,1.0,0.0,M,0.0,M,,*7A
$GPGSA,A,3,01,02,03,04,05,06,07,08,09,10,11,12,1.0,1.0,1.0*30
$GPRMC,151902.851,A,4234.499,N,08311.749,W,011.3,272.4,120520,000.0,W*6A
$GPGGA,151903.851,4234.499,N,08311.753,W,1,12,1.0,0.0,M,0.0,M,,*70
$GPGSA,A,3,01,02,03,04,05,06,07,08,09,10,11,12,1.0,1.0,1.0*30
$GPRMC,151903.851,A,4234.499,N,08311.753,W,011.8,272.3,120520,000.0,W*6C
$GPGGA,151904.851,4234.499,N,08311.758,W,1,12,1.0,0.0,M,0.0,M,,*7C
$GPGSA,A,3,01,02,03,04,05,06,07,08,09,10,11,12,1.0,1.0,1.0*30
$GPRMC,151904.851,A,4234.499,N,08311.758,W,011.6,275.5,120520,000.0,W*6F
$GPGGA,151905.851,4234.500,N,08311.762,W,1,12,1.0,0.0,M,0.0,M,,*75
$GPGSA,A,3,01,02,03,04,05,06,07,08,09,10,11,12,1.0,1.0,1.0*30
$GPRMC,151905.851,A,4234.500,N,08311.762,W,010.1,272.7,120520,000.0,W*65
$GPGGA,151906.851,4234.500,N,08311.766,W,1,12,1.0,0.0,M,0.0,M,,*72
$GPGSA,A,3,01,02,03,04,05,06,07,08,09,10,11,12,1.0,1.0,1.0*30
$GPRMC,151906.851,A,4234.500,N,08311.766,W,011.1,270.8,120520,000.0,W*6E
$GPGGA,151907.851,4234.500,N,08311.770,W,1,12,1.0,0.0,M,0.0,M,,*74
$GPGSA,A,3,01,02,03,04,05,06,07,08,09,10,11,12,1.0,1.0,1.0*30
$GPRMC,151907.851,A,4234.500,N,08311.770,W,011.1,269.2,120520,000.0,W*6A
$GPGGA,151908.851,4234.500,N,08311.774,W,1,12,1.0,0.0,M,0.0,M,,*7F
$GPGSA,A,3,01,02,03,04,05,06,07,08,09,10,11,12,1.0,1.0,1.0*30
$GPRMC,151908.851,A,4234.500,N,08311.774,W,010.3,268.2,120520,000.0,W*63
$GPGGA,151909.851,4234.500,N,08311.778,W,1,12,1.0,0.0,M,0.0,M,,*72
$GPGSA,A,3,01,02,03,04,05,06,07,08,09,10,11,12,1.0,1.0,1.0*30
$GPRMC,151909.851,A,4234.500,N,08311.778,W,010.5,270.0,120520,000.0,W*63
$GPGGA,151910.851,4234.500,N,08311.782,W,1,12,1.0,0.0,M,0.0,M,,*7F
$GPGSA,A,3,01,02,03,04,05,06,07,08,09,10,11,12,1.0,1.0,1.0*30
$GPRMC,151910.851,A,4234.500,N,08311.782,W,011.7,269.2,120520,000.0,W*67
$GPGGA,151911.851,4234.500,N,08311.787,W,1,12,1.0,0.0,M,0.0,M,,*7B
$GPGSA,A,3,01,02,03,04,05,06,07,08,09,10,11,12,1.0,1.0,1.0*30
$GPRMC,151911.851,A,4234.500,N,08311.787,W,011.2,265.1,120520,000.0,W*69
$GPGGA,151912.851,4234.500,N,08311.791,W,1,12,1.0,0.0,M,0.0,M,,*7F
$GPGSA,A,3,01,02,03,04,05,06,07,08,09,10,11,12,1.0,1.0,1.0*30
$GPRMC,151912.851,A,4234.500,N,08311.791,W,010.9,268.3,120520,000.0,W*68
$GPGGA,151913.851,4234.499,N,08311.795,W,1,12,1.0,0.0,M,0.0,M,,*7B
$GPGSA,A,3,01,02,03,04,05,06,07,08,09,10,11,12,1.0,1.0,1.0*30
$GPRMC,151913.851,A,4234.499,N,08311.795,W,010.7,271.7,120520,000.0,W*6E
$GPGGA,151914.851,4234.500,N,08311.799,W,1,12,1.0,0.0,M,0.0,M,,*71
$GPGSA,A,3,01,02,03,04,05,06,07,08,09,10,11,12,1.0,1.0,1.0*30
$GPRMC,151914.851,A,4234.500,N,08311.799,W,013.2,270.7,120520,000.0,W*63
$GPGGA,151915.851,4234.500,N,08311.804,W,1,12,1.0,0.0,M,0.0,M,,*7B
$GPGSA,A,3,01,02,03,04,05,06,07,08,09,10,11,12,1.0,1.0,1.0*30
$GPRMC,151915.851,A,4234.500,N,08311.804,W,012.0,270.0,120520,000.0,W*6D
$GPGGA,151916.851,4234.500,N,08311.808,W,1,12,1.0,0.0,M,0.0,M,,*74
$GPGSA,A,3,01,02,03,04,05,06,07,08,09,10,11,12,1.0,1.0,1.0*30
$GPRMC,151916.851,A,4234.500,N,08311.808,W,013.0,270.7,120520,000.0,W*64
$GPGGA,151917.851,4234.500,N,08311.813,W,1,12,1.0,0.0,M,0.0,M,,*7F
$GPGSA,A,3,01,02,03,04,05,06,07,08,09,10,11,12,1.0,1.0,1.0*30
$GPRMC,151917.851,A,4234.500,N,08311.813,W,010.2,270.9,120520,000.0,W*60
$GPGGA,151918.851,4234.500,N,08311.817,W,1,12,1.0,0.0,M,0.0,M,,*74
$GPGSA,A,3,01,02,03,04,05,06,07,08,09,10,11,12,1.0,1.0,1.0*30
$GPRMC,151918.851,A,4234.500,N,08311.817,W,012.0,270.8,120520,000.0,W*6A
$GPGGA,151919.851,4234.500,N,08311.822,W,1,12,1.0,0.0,M,0.0,M,,*73
$GPGSA,A,3,01,02,03,04,05,06,07,08,09,10,11,12,1.0,1.0,1.0*30
$GPRMC,151919.851,A,4234.500,N,08311.822,W,012.0,270.8,120520,000.0,W*6D
$GPGGA,151920.851,4234.500,N,08311.826,W,1,12,1.0,0.0,M,0.0,M,,*7D
$GPGSA,A,3,01,02,03,04,05,06,07,08,09,10,11,12,1.0,1.0,1.0*30
$GPRMC,151920.851,A,4234.500,N,08311.826,W,010.5,271.7,120520,000.0,W*6A
$GPGGA,151921.851,4234.500,N,08311.830,W,1,12,1.0,0.0,M,0.0,M,,*7B
$GPGSA,A,3,01,02,03,04,05,06,07,08,09,10,11,12,1.0,1.0,1.0*30
$GPRMC,151921.851,A,4234.500,N,08311.830,W,006.0,265.5,120520,000.0,W*69
$GPGGA,151922.851,4234.500,N,08311.832,W,1,12,1.0,0.0,M,0.0,M,,*7A
$GPGSA,A,3,01,02,03,04,05,06,07,08,09,10,11,12,1.0,1.0,1.0*30
$GPRMC,151922.851,A,4234.500,N,08311.832,W,005.6,265.1,120520,000.0,W*69
$GPGGA,151923.851,4234.500,N,08311.835,W,1,12,1.0,0.0,M,0.0,M,,*7C
$GPGSA,A,3,01,02,03,04,05,06,07,08,09,10,11,12,1.0,1.0,1.0*30
$GPRMC,151923.851,A,4234.500,N,08311.835,W,005.6,265.1,120520,000.0,W*6F
